,City,Latitude,Longitude,Tempature,Humidity,Cloudiness,Windspeed,Country,Date of Weather
0,Hilo,19.7297,-155.09,70.11,92,8,4.0,US,2021-09-12
1,Esperance,-33.8667,121.9,49.84,72,11,12.08,AU,2021-09-12
2,Cidreira,-30.1811,-50.2056,68.09,76,6,14.52,BR,2021-09-12
3,Busselton,-33.65,115.3333,50.09,81,96,4.23,AU,2021-09-12
4,Bluff,-46.6,168.3333,47.8,77,87,24.87,NZ,2021-09-12
5,Rome,43.2128,-75.4557,74.12,78,100,10.25,US,2021-09-12
6,Rikitea,-23.1203,-134.9692,72.97,74,26,6.13,PF,2021-09-12
7,Nabīnagar,23.8917,90.9733,91.47,83,42,11.27,BD,2021-09-12
8,Punta Arenas,-53.15,-70.9167,41.11,75,0,9.22,CL,2021-09-12
9,Bengkulu,-3.8004,102.2655,76.91,89,66,3.06,ID,2021-09-12
10,Magnolia,33.2671,-93.2393,78.48,51,0,4.05,US,2021-09-12
11,Isiro,2.7739,27.616,66.4,99,97,3.4,CD,2021-09-12
12,Richards Bay,-28.783,32.0377,73.85,62,0,16.2,ZA,2021-09-12
13,Qaanaaq,77.484,-69.3632,25.61,61,7,6.69,GL,2021-09-12
14,Albany,42.6001,-73.9662,73.62,76,93,6.06,US,2021-09-12
15,Puerto Ayora,-0.7393,-90.3518,69.76,97,97,5.01,EC,2021-09-12
16,Fujin,47.26,132.0322,47.91,85,13,5.41,CN,2021-09-12
17,Oussouye,12.485,-16.5469,93.38,73,67,5.99,SN,2021-09-12
18,Kiryat Gat,31.61,34.7642,81.79,17,0,10.87,IL,2021-09-12
19,Hermanus,-34.4187,19.2345,57.9,77,100,9.86,ZA,2021-09-12
20,Fukuechō,32.6881,128.8419,75.54,88,100,11.34,JP,2021-09-12
21,Pochutla,15.7432,-96.4661,73.81,88,100,1.83,MX,2021-09-12
22,Iisalmi,63.5592,27.1907,55.42,98,100,6.62,FI,2021-09-12
23,Souillac,-20.5167,57.5167,72.36,83,75,18.41,MU,2021-09-12
24,Hobyo,5.3505,48.5268,78.73,75,97,24.54,SO,2021-09-12
25,Man,7.4125,-7.5538,77.58,90,95,2.91,CI,2021-09-12
26,Mataura,-46.1927,168.8643,47.48,97,100,5.79,NZ,2021-09-12
27,Sarandi,-23.4436,-51.8739,85.55,45,0,12.66,BR,2021-09-12
28,Port Macquarie,-31.4333,152.9167,60.76,59,15,9.46,AU,2021-09-12
29,Tiksi,71.6872,128.8694,46.44,78,39,8.01,RU,2021-09-12
30,Coyhaique,-45.5752,-72.0662,43.41,81,75,9.22,CL,2021-09-12
31,Banes,20.9625,-75.7186,87.48,61,17,16.17,CU,2021-09-12
32,Comodoro Rivadavia,-45.8667,-67.5,55.26,38,0,25.32,AR,2021-09-12
33,Barrow,71.2906,-156.7887,37.22,91,100,6.42,US,2021-09-12
34,Mahébourg,-20.4081,57.7,72.25,83,75,18.41,MU,2021-09-12
35,Batagay,67.6333,134.6333,44.49,60,20,3.18,RU,2021-09-12
36,Kaitangata,-46.2817,169.8464,46.98,90,96,11.83,NZ,2021-09-12
37,Kapoeta,4.7717,33.5903,89.37,31,35,10.98,SS,2021-09-12
38,Lompoc,34.6391,-120.4579,57.63,72,15,5.01,US,2021-09-12
39,Isangel,-19.55,169.2667,72.12,85,36,8.88,VU,2021-09-12
40,Belmonte,-15.8631,-38.8828,81.1,63,99,5.64,BR,2021-09-12
41,Saint Paul Harbor,57.79,-152.4072,49.93,93,99,16.28,US,2021-09-12
42,Vaini,-21.2,-175.2,69.96,94,40,2.3,TO,2021-09-12
43,Tuktoyaktuk,69.4541,-133.0374,42.8,100,90,8.05,CA,2021-09-12
44,Port Alfred,-33.5906,26.891,67.05,74,31,11.65,ZA,2021-09-12
45,Okhotsk,59.3833,143.3,48.18,82,14,1.97,RU,2021-09-12
46,Cape Town,-33.9258,18.4232,63.1,69,75,5.01,ZA,2021-09-12
47,Ushuaia,-54.8,-68.3,40.66,60,75,3.44,AR,2021-09-12
48,Deputatsky,69.3,139.9,40.21,57,12,5.46,RU,2021-09-12
49,Atuona,-9.8,-139.0333,77.85,73,6,23.0,PF,2021-09-12
50,Tessalit,20.1986,1.0114,108.93,8,56,7.76,ML,2021-09-12
51,Nikolskoye,59.7035,30.7861,62.49,82,100,6.85,RU,2021-09-12
52,Kavieng,-2.5744,150.7967,82.87,76,33,13.82,PG,2021-09-12
53,Aykhal,66.0,111.5,50.11,61,100,5.75,RU,2021-09-12
54,Dikson,73.5069,80.5464,40.75,85,16,7.83,RU,2021-09-12
55,Quatre Cocos,-20.2078,57.7625,72.09,76,30,22.48,MU,2021-09-12
56,Nanortalik,60.1432,-45.2371,39.99,88,100,20.92,GL,2021-09-12
57,Tasiilaq,65.6145,-37.6368,35.4,84,100,51.63,GL,2021-09-12
58,Lorengau,-2.0226,147.2712,82.06,77,74,7.34,PG,2021-09-12
59,Qeshm,26.9581,56.2719,98.49,61,4,9.55,IR,2021-09-12
60,Chekhov,55.1431,37.4711,68.23,69,82,5.37,RU,2021-09-12
61,Jodhpur,26.2867,73.03,86.52,66,91,7.58,IN,2021-09-12
62,Hithadhoo,-0.6,73.0833,84.27,68,90,8.97,MV,2021-09-12
63,Manaure,11.7751,-72.4445,87.04,60,100,18.39,CO,2021-09-12
64,Palmer,42.1584,-72.3287,74.62,69,77,5.01,US,2021-09-12
65,Henties Bay,-22.116,14.2845,58.86,78,5,14.38,NA,2021-09-12
66,Harper,4.375,-7.7169,78.91,81,95,8.61,LR,2021-09-12
67,Avarua,-21.2078,-159.775,73.45,88,90,9.22,CK,2021-09-12
68,Novy Urengoy,66.0833,76.6333,45.09,97,100,11.39,RU,2021-09-12
69,Thompson,55.7435,-97.8558,39.36,87,75,8.05,CA,2021-09-12
70,Chokurdakh,70.6333,147.9167,43.27,73,61,8.79,RU,2021-09-12
71,George Town,5.4112,100.3354,80.55,83,20,3.44,MY,2021-09-12
72,Lázaro Cárdenas,17.9583,-102.2,80.22,87,100,4.56,MX,2021-09-12
73,Waddān,29.1614,16.139,96.67,25,0,11.56,LY,2021-09-12
74,Upernavik,72.7868,-56.1549,33.51,64,100,25.34,GL,2021-09-12
75,Tambaram,12.9299,80.1118,85.75,79,75,9.22,IN,2021-09-12
76,Ribeira Grande,38.5167,-28.7,75.6,60,40,8.05,PT,2021-09-12
77,Atikokan,48.7555,-91.6216,54.48,56,68,8.14,CA,2021-09-12
78,Arrondissement de Saintes,45.6667,-0.75,81.82,29,41,4.16,FR,2021-09-12
79,Sattur,9.3667,77.9333,88.68,59,99,18.81,IN,2021-09-12
80,Hay River,60.8156,-115.7999,48.18,87,75,3.44,CA,2021-09-12
81,Khomutovka,51.9207,34.5619,74.12,42,67,1.3,RU,2021-09-12
82,Sambava,-14.2667,50.1667,71.69,87,100,15.73,MG,2021-09-12
83,Campbell River,50.0163,-125.2446,54.93,100,40,8.05,CA,2021-09-12
84,Los Llanos de Aridane,28.6585,-17.9182,78.55,70,20,8.05,ES,2021-09-12
85,Guerrero Negro,27.9769,-114.0611,75.06,74,2,1.81,MX,2021-09-12
86,Riwaka,-41.0833,173.0,57.6,87,54,6.44,NZ,2021-09-12
87,Gorom-Gorom,14.4439,-0.2361,96.44,38,100,11.1,BF,2021-09-12
88,Antequera,37.0194,-4.5612,83.77,22,68,10.38,ES,2021-09-12
89,Buala,-8.145,159.5921,79.48,80,31,7.9,SB,2021-09-12
90,Carutapera,-1.195,-46.02,86.56,61,89,11.36,BR,2021-09-12
91,Marzuq,14.4,46.4667,91.72,18,62,8.37,YE,2021-09-12
92,Lom,43.8139,23.2361,85.44,17,42,6.51,BG,2021-09-12
93,Port Lincoln,-34.7333,135.8667,51.31,58,6,14.81,AU,2021-09-12
94,Zhangye,38.9342,100.4517,62.04,60,55,8.1,CN,2021-09-12
95,Plettenberg Bay,-34.0527,23.3716,62.71,77,83,7.34,ZA,2021-09-12
96,Port Elizabeth,-33.918,25.5701,64.69,82,90,12.66,ZA,2021-09-12
97,Lábrea,-7.2586,-64.7981,97.05,38,38,2.51,BR,2021-09-12
98,Vallenar,-28.5708,-70.7581,61.72,45,0,3.76,CL,2021-09-12
99,Mashhad,36.297,59.6062,77.14,29,0,13.8,IR,2021-09-12
100,Talnakh,69.4865,88.3972,46.13,85,100,4.7,RU,2021-09-12
101,Beauceville,46.2179,-70.7787,68.79,88,100,2.3,CA,2021-09-12
102,Flinders,-34.5833,150.8552,60.21,53,30,5.01,AU,2021-09-12
103,Mount Isa,-20.7333,139.5,71.37,37,75,0.0,AU,2021-09-12
104,Coquimbo,-29.9533,-71.3436,60.53,63,0,3.44,CL,2021-09-12
105,Ahipara,-35.1667,173.1667,51.12,85,5,8.25,NZ,2021-09-12
106,Heze,35.2431,115.4411,73.47,82,0,5.28,CN,2021-09-12
107,Lebu,-37.6167,-73.65,50.94,80,100,18.43,CL,2021-09-12
108,Mandiana,10.6333,-8.6833,82.92,73,94,2.26,GN,2021-09-12
109,Soe,-9.8607,124.284,66.38,90,100,4.0,ID,2021-09-12
110,Pisco,-13.7,-76.2167,65.01,77,20,6.91,PE,2021-09-12
111,Bandarbeyla,9.4942,50.8122,77.77,82,9,33.98,SO,2021-09-12
112,Kahului,20.8947,-156.47,72.97,86,10,11.1,US,2021-09-12
113,Chase,50.8165,-119.6857,58.71,90,79,4.0,CA,2021-09-12
114,Varhaug,58.6147,5.6457,56.89,82,99,29.37,NO,2021-09-12
115,Hobart,-42.8794,147.3294,46.26,78,75,1.01,AU,2021-09-12
116,Ilulissat,69.2167,-51.1,26.4,64,100,3.2,GL,2021-09-12
117,Puteyets,65.1716,57.091,38.77,84,84,5.48,RU,2021-09-12
118,Saint-Philippe,-21.3585,55.7679,71.19,82,44,17.31,RE,2021-09-12
119,Provideniya,64.3833,-173.3,40.14,84,25,11.23,RU,2021-09-12
120,New Norfolk,-42.7826,147.0587,45.91,66,100,1.01,AU,2021-09-12
121,Vila Velha,-20.3297,-40.2925,82.35,69,20,11.5,BR,2021-09-12
122,Yantal',56.8471,105.2542,42.78,83,68,4.27,RU,2021-09-12
123,Avera,33.194,-82.5271,82.9,51,0,3.8,US,2021-09-12
124,Dunedin,-45.8742,170.5036,53.8,84,100,3.0,NZ,2021-09-12
125,Port Hardy,50.6996,-127.4199,51.8,100,75,2.3,CA,2021-09-12
126,Conceição do Araguaia,-8.2578,-49.2647,87.93,58,20,11.5,BR,2021-09-12
127,East London,-33.0153,27.9116,67.14,82,75,6.91,ZA,2021-09-12
128,Touros,-5.1989,-35.4608,86.9,61,68,18.1,BR,2021-09-12
129,Narón,43.5167,-8.1528,81.45,59,82,5.08,ES,2021-09-12
130,Sobolevo,54.4299,31.8996,69.17,64,100,5.41,RU,2021-09-12
131,Abu Dhabi,24.4667,54.3667,100.51,49,36,10.36,AE,2021-09-12
132,Faanui,-16.4833,-151.75,76.91,74,25,16.73,PF,2021-09-12
133,Baniachang,24.5167,91.3667,81.64,85,76,10.25,BD,2021-09-12
134,Djambala,-2.5447,14.7533,72.41,77,100,1.61,CG,2021-09-12
135,Komatipoort,-25.4332,31.9548,89.06,16,0,7.11,ZA,2021-09-12
136,Teya,60.3778,92.6267,45.9,97,99,4.03,RU,2021-09-12
137,Dingle,10.9995,122.6711,76.93,90,100,1.81,PH,2021-09-12
138,Esim,4.8699,-2.2405,81.16,76,34,10.49,GH,2021-09-12
139,Sonīpat,28.9833,77.0167,85.21,76,85,5.93,IN,2021-09-12
140,Ténenkou,14.4572,-4.9169,98.44,30,100,4.74,ML,2021-09-12
141,Bariloche,-41.1456,-71.3082,38.95,81,40,23.02,AR,2021-09-12
142,Portland,45.5234,-122.6762,62.74,89,74,1.48,US,2021-09-12
143,Lucea,18.451,-78.1736,88.86,70,92,8.81,JM,2021-09-12
144,Ligayan,4.6533,119.4706,79.45,84,100,14.0,PH,2021-09-12
145,Bredasdorp,-34.5322,20.0403,61.92,63,95,16.11,ZA,2021-09-12
146,Muisne,0.6,-80.0333,78.91,81,100,7.67,EC,2021-09-12
147,Korčula,42.9622,17.1369,90.16,70,43,12.57,HR,2021-09-12
148,Castro,-24.7911,-50.0119,83.44,36,0,6.04,BR,2021-09-12
149,Kalāleh,37.3807,55.4916,89.2,45,20,0.0,IR,2021-09-12
150,Tocopilla,-22.092,-70.1979,65.14,62,100,9.46,CL,2021-09-12
151,Najrān,17.4924,44.1277,93.85,10,80,13.53,SA,2021-09-12
152,Norman Wells,65.282,-126.8329,41.04,100,75,0.0,CA,2021-09-12
153,São Filipe,14.8961,-24.4956,81.25,76,57,12.73,CV,2021-09-12
154,Sarkand,45.41,79.9186,57.07,45,22,2.64,KZ,2021-09-12
155,Teluk Nibung,3.001,99.8164,77.34,89,41,3.04,ID,2021-09-12
156,Pitimbu,-7.4706,-34.8086,82.99,66,77,13.85,BR,2021-09-12
157,Hamilton,39.1834,-84.5333,79.05,68,23,3.0,US,2021-09-12
158,Waingapu,-9.6567,120.2641,79.38,80,97,4.54,ID,2021-09-12
159,Bambous Virieux,-20.3428,57.7575,72.21,83,75,18.41,MU,2021-09-12
160,Saldanha,-33.0117,17.9442,62.65,73,44,14.32,ZA,2021-09-12
161,Ambulu,-8.345,113.6058,74.61,96,100,1.25,ID,2021-09-12
162,Cherskiy,68.75,161.3,33.78,64,100,8.05,RU,2021-09-12
163,Hasaki,35.7333,140.8333,72.0,89,100,13.18,JP,2021-09-12
164,Nouakchott,18.0858,-15.9785,91.33,71,50,10.89,MR,2021-09-12
165,Sisimiut,66.9395,-53.6735,34.9,70,77,22.39,GL,2021-09-12
166,Sinnamary,5.3833,-52.95,85.21,63,1,8.52,GF,2021-09-12
167,Vestmannaeyjar,63.4427,-20.2734,52.79,100,90,26.46,IS,2021-09-12
168,Caravelas,-17.7125,-39.2481,81.05,58,96,7.92,BR,2021-09-12
169,Pierre,44.3683,-100.351,63.46,42,88,8.23,US,2021-09-12
170,Kavaratti,10.5669,72.642,81.73,82,100,20.56,IN,2021-09-12
171,Val-David,46.0334,-74.2159,70.7,61,82,13.51,CA,2021-09-12
172,Laguna,38.421,-121.4238,77.5,68,40,1.99,US,2021-09-12
173,Sabang,5.8933,95.3214,81.59,76,100,22.88,ID,2021-09-12
174,Sitka,57.0531,-135.33,55.29,88,90,3.44,US,2021-09-12
175,Río Gallegos,-51.6226,-69.2181,39.25,81,0,12.66,AR,2021-09-12
176,Grindavik,63.8424,-22.4338,53.55,93,75,31.07,IS,2021-09-12
177,Wanning,18.8003,110.3967,80.74,85,90,3.38,CN,2021-09-12
178,Butaritari,3.0707,172.7902,83.12,75,100,21.77,KI,2021-09-12
179,Brae,60.3964,-1.353,55.31,77,64,11.65,GB,2021-09-12
180,Lillehammer,61.1146,10.4674,57.96,85,100,4.43,NO,2021-09-12
181,Geraldton,-28.7667,114.6,52.21,82,0,10.36,AU,2021-09-12
182,Vågåmo,61.8751,9.0967,57.04,61,45,9.82,NO,2021-09-12
183,Gouré,13.9835,10.2704,99.01,22,100,7.83,NE,2021-09-12
184,San Patricio,28.017,-97.5169,85.87,63,100,10.13,US,2021-09-12
185,Narsaq,60.9167,-46.05,44.42,79,100,4.03,GL,2021-09-12
186,Mar del Plata,-38.0023,-57.5575,57.22,94,90,16.11,AR,2021-09-12
187,Pevek,69.7008,170.3133,30.13,89,100,8.77,RU,2021-09-12
188,Iqaluit,63.7506,-68.5145,33.53,69,75,17.27,CA,2021-09-12
189,Xingyi,24.1877,102.817,62.58,80,0,0.45,CN,2021-09-12
190,Kathu,7.9178,98.3332,82.22,81,99,13.91,TH,2021-09-12
191,Lobatse,-25.2167,25.6667,81.72,12,0,8.03,BW,2021-09-12
192,Portlethen,57.0547,-2.1307,56.97,71,90,9.22,GB,2021-09-12
193,Karaton,-6.3424,106.1045,78.96,92,93,1.34,ID,2021-09-12
194,Beloha,-25.1667,45.05,71.56,67,0,17.78,MG,2021-09-12
195,Lavrentiya,65.5833,-171.0,39.47,79,98,11.27,RU,2021-09-12
196,Nacala,-14.5428,40.6728,77.34,68,67,9.89,MZ,2021-09-12
197,Bolotnoye,55.6717,84.3981,42.3,82,44,17.34,RU,2021-09-12
198,Jamestown,42.097,-79.2353,70.3,82,99,8.99,US,2021-09-12
199,Taunggyi,20.7833,97.0333,63.19,97,52,3.06,MM,2021-09-12
200,Kapaa,22.0752,-159.319,74.12,59,42,13.82,US,2021-09-12
201,Hofn,64.2539,-15.2082,44.62,81,90,9.22,IS,2021-09-12
202,Saskylakh,71.9167,114.0833,44.15,62,8,5.3,RU,2021-09-12
203,Linkou,45.3,130.2833,48.78,89,32,1.57,CN,2021-09-12
204,Okha,53.5739,142.9478,50.59,65,73,13.85,RU,2021-09-12
205,North Bend,43.4065,-124.2243,54.12,94,85,1.1,US,2021-09-12
206,Bethel,41.3712,-73.414,75.22,77,62,1.01,US,2021-09-12
207,Awjilah,29.1081,21.2869,99.63,24,0,18.59,LY,2021-09-12
208,Kharan,28.5833,65.4167,90.86,11,0,5.99,PK,2021-09-12
209,Lakes Entrance,-37.8811,147.981,47.16,90,100,8.39,AU,2021-09-12
210,Sistranda,63.7256,8.834,53.91,66,94,14.43,NO,2021-09-12
211,Kathmandu,27.7167,85.3167,73.62,94,20,3.44,NP,2021-09-12
212,Martapura,-3.4167,114.85,77.09,100,90,2.3,ID,2021-09-12
213,Yellowknife,62.456,-114.3525,46.92,100,75,10.36,CA,2021-09-12
214,Elizabeth City,36.2946,-76.2511,80.62,66,8,4.0,US,2021-09-12
215,Ancud,-41.8697,-73.8203,47.73,81,77,16.58,CL,2021-09-12
216,Ambon City,-3.6954,128.1814,77.14,100,40,3.44,ID,2021-09-12
217,Holland,42.7875,-86.1089,77.02,53,98,14.2,US,2021-09-12
218,Shenjiamen,29.9576,122.298,79.45,92,100,32.84,CN,2021-09-12
219,Inta,66.0317,60.1659,37.29,93,100,8.57,RU,2021-09-12
220,Srednekolymsk,67.45,153.6833,37.02,57,100,8.48,RU,2021-09-12
221,Bathsheba,13.2167,-59.5167,85.05,85,75,5.75,BB,2021-09-12
222,Mehamn,71.0357,27.8492,49.95,66,0,8.05,NO,2021-09-12
223,Yanam,16.7333,82.2167,84.6,85,100,7.96,IN,2021-09-12
224,Airai,-8.9266,125.4092,60.57,93,76,1.57,TL,2021-09-12
225,Wewak,-3.5534,143.6268,79.81,86,71,10.74,PG,2021-09-12
226,Arlit,18.7369,7.3853,106.07,12,3,4.61,NE,2021-09-12
227,Lucapa,-8.4192,20.7447,91.94,20,90,5.01,AO,2021-09-12
228,Strelka,58.0728,93.0344,52.3,82,100,5.03,RU,2021-09-12
229,Manado,1.487,124.8455,75.97,94,40,1.14,ID,2021-09-12
230,Zaysan,47.4667,84.8667,52.16,79,52,2.19,KZ,2021-09-12
231,Saint George,37.1041,-113.5841,83.53,34,1,1.01,US,2021-09-12
232,Bayevo,53.2833,80.7667,43.9,76,84,10.71,RU,2021-09-12
233,Leningradskiy,69.3833,178.4167,28.56,96,100,18.16,RU,2021-09-12
234,Kutno,52.2306,19.3641,76.1,61,95,8.75,PL,2021-09-12
235,Porto Santo,33.072,-16.3415,79.3,65,20,12.66,PT,2021-09-12
236,North Versailles,40.3798,-79.8095,76.51,70,79,10.0,US,2021-09-12
237,Wahiawā,21.5028,-158.0236,72.86,85,75,0.0,US,2021-09-12
238,Keïta,14.7551,5.7749,96.8,31,64,7.2,NE,2021-09-12
239,Ponta do Sol,32.6667,-17.1,81.72,72,64,10.22,PT,2021-09-12
240,Umm Kaddadah,13.6017,26.6876,93.36,35,98,5.48,SD,2021-09-12
241,Hong Kong,22.2855,114.1577,88.32,82,95,1.01,HK,2021-09-12
242,Boa Vista,2.8197,-60.6733,89.58,51,40,11.5,BR,2021-09-12
243,Verkhneyarkeyevo,55.4505,54.3145,53.38,66,71,6.24,RU,2021-09-12
244,Chui,-33.6971,-53.4616,64.71,74,100,11.56,UY,2021-09-12
245,Goundam,16.4145,-3.6708,102.83,19,17,11.21,ML,2021-09-12
246,Te Anau,-45.4167,167.7167,42.66,89,100,4.25,NZ,2021-09-12
247,Soto la Marina,23.7667,-98.2167,81.18,75,97,6.69,MX,2021-09-12
248,Quibdó,5.6947,-76.6611,83.55,68,94,2.04,CO,2021-09-12
249,Tūkrah,32.5341,20.5791,81.34,69,2,16.67,LY,2021-09-12
250,Bella Vista,36.4295,-94.2316,78.49,63,0,1.01,US,2021-09-12
251,Villa del Rosario,7.8339,-72.4742,80.98,57,40,4.61,CO,2021-09-12
252,Matara,5.9485,80.5353,79.2,81,100,10.47,LK,2021-09-12
253,Hervey Bay,-25.2986,152.8535,69.04,74,24,15.61,AU,2021-09-12
254,Shimoda,34.6667,138.95,73.51,92,100,10.0,JP,2021-09-12
255,Vanderbijlpark,-26.7117,27.838,78.12,6,0,8.86,ZA,2021-09-12
256,Pascagoula,30.3658,-88.5561,83.55,84,100,11.34,US,2021-09-12
257,Fortuna,40.5982,-124.1573,55.92,68,39,3.0,US,2021-09-12
258,Cabo San Lucas,22.8909,-109.9124,82.51,87,3,6.64,MX,2021-09-12
259,Cururupu,-1.8283,-44.8683,86.74,59,97,9.75,BR,2021-09-12
260,Vardø,70.3705,31.1107,46.15,76,69,11.36,NO,2021-09-12
261,Lüderitz,-26.6481,15.1594,64.06,68,37,24.11,NA,2021-09-12
262,Ca Mau,9.1769,105.15,79.39,87,97,9.01,VN,2021-09-12
263,Galveston,29.3669,-94.9669,85.03,81,14,1.99,US,2021-09-12
264,Khovd,48.0056,91.6419,60.31,20,1,10.07,MN,2021-09-12
265,Torbay,47.6666,-52.7314,67.48,63,75,16.11,CA,2021-09-12
266,San Quintín,30.4833,-115.95,74.48,76,0,6.29,MX,2021-09-12
267,Lyubinskiy,55.1542,72.6925,47.88,55,94,17.31,RU,2021-09-12
268,Xichang,27.8964,102.2634,66.4,91,100,1.83,CN,2021-09-12
269,Changde,29.0464,111.6783,78.93,80,70,6.02,CN,2021-09-12
270,Raudeberg,61.9875,5.1352,56.8,71,40,16.04,NO,2021-09-12
271,Aklavik,68.2191,-135.0107,45.43,87,75,8.05,CA,2021-09-12
272,Kununurra,-15.7667,128.7333,73.38,73,57,3.44,AU,2021-09-12
273,Manaus,-3.1019,-60.025,90.1,66,40,3.44,BR,2021-09-12
274,Dzaoudzi,-12.7887,45.2699,78.69,69,0,5.75,YT,2021-09-12
275,Sahuaripa,29.05,-109.2333,79.57,39,2,2.86,MX,2021-09-12
276,Husavik,66.0449,-17.3389,44.51,76,100,9.6,IS,2021-09-12
277,Zhigansk,66.7697,123.3711,46.02,65,100,7.45,RU,2021-09-12
278,Yulara,-25.2406,130.9889,66.04,39,0,12.66,AU,2021-09-12
279,Maceió,-9.6658,-35.7353,87.24,58,75,13.8,BR,2021-09-12
280,Khani,41.9563,42.9566,65.77,96,73,2.37,GE,2021-09-12
281,Santa Fe,-31.6333,-60.7,81.01,46,66,8.01,AR,2021-09-12
282,Izumo,35.3667,132.7667,73.35,86,100,5.64,JP,2021-09-12
283,Vao,-22.6667,167.4833,68.29,64,51,12.68,NC,2021-09-12
284,Bom Jesus,-9.0744,-44.3586,98.98,20,0,8.28,BR,2021-09-12
285,Berlevåg,70.8578,29.0864,50.0,76,56,13.96,NO,2021-09-12
286,Kodinsk,58.6881,99.1844,49.96,91,100,4.03,RU,2021-09-12
287,Markdorf,47.7167,9.4,74.93,64,20,6.91,DE,2021-09-12
288,Saint Anthony,45.0205,-93.218,62.49,71,90,1.99,US,2021-09-12
289,Williams Lake,52.1415,-122.1445,41.22,94,24,2.08,CA,2021-09-12
290,Katsuura,35.1333,140.3,77.11,87,100,16.91,JP,2021-09-12
291,Mackay,-21.15,149.2,67.05,81,45,5.55,AU,2021-09-12
292,Bilma,18.6853,12.9164,104.86,9,4,7.54,NE,2021-09-12
293,Kendari,-3.945,122.4989,75.27,93,48,0.78,ID,2021-09-12
294,Alekseyevsk,57.8406,108.3492,41.59,95,10,3.27,RU,2021-09-12
295,Nicolás Bravo,18.45,-88.9167,80.49,86,100,7.94,MX,2021-09-12
296,Hualmay,-11.0964,-77.6139,64.92,76,66,9.51,PE,2021-09-12
297,Vega de Alatorre,20.0333,-96.6333,80.1,75,87,15.28,MX,2021-09-12
298,Olinda,-8.0089,-34.8553,82.13,61,75,11.5,BR,2021-09-12
299,Key West,24.5557,-81.7826,88.0,75,100,17.96,US,2021-09-12
300,San Cristobal,7.7669,-72.225,75.38,49,39,8.88,VE,2021-09-12
301,Yambio,4.5721,28.3955,71.35,93,99,4.12,SS,2021-09-12
302,Gueugnon,46.6036,4.0629,78.98,40,84,0.67,FR,2021-09-12
303,Lagunas,-5.2269,-75.6753,81.28,73,97,1.52,PE,2021-09-12
304,Alto Araguaia,-17.3147,-53.2153,97.09,15,1,11.18,BR,2021-09-12
305,Alice Springs,-23.7,133.8833,62.15,45,0,10.36,AU,2021-09-12
306,Chicama,-7.8447,-79.1469,67.44,74,84,7.43,PE,2021-09-12
307,Abū Zabad,12.35,29.25,80.33,71,99,15.37,SD,2021-09-12
308,Carinhanha,-14.3047,-43.765,95.7,15,0,7.83,BR,2021-09-12
309,Det Udom,14.906,105.0784,75.15,96,100,5.41,TH,2021-09-12
310,Nova Ushytsya,48.8372,27.2743,74.68,40,100,3.36,UA,2021-09-12
311,Praia da Vitória,38.7333,-27.0667,69.94,80,100,24.74,PT,2021-09-12
312,Jalu,29.0331,21.5482,100.45,22,0,18.92,LY,2021-09-12
313,Bang Saphan,11.2126,99.5117,79.65,80,100,9.78,TH,2021-09-12
314,Dapaong,10.8639,0.205,84.33,60,100,8.19,TG,2021-09-12
315,Oktyabr'skoye,43.0645,44.7417,60.94,94,90,6.71,RU,2021-09-12
316,Nizwá,22.9333,57.5333,95.38,27,99,6.73,OM,2021-09-12
317,Rawson,-43.3002,-65.1023,60.44,29,73,27.07,AR,2021-09-12
318,Horconcitos,8.4682,-81.8007,70.27,92,100,0.83,PA,2021-09-12
319,Noumea,-22.2763,166.4572,62.58,77,0,8.3,NC,2021-09-12
320,Glamoč,44.0458,16.8486,72.84,28,34,7.67,BA,2021-09-12
321,Manggar,-2.8833,108.2667,80.62,80,51,6.96,ID,2021-09-12
322,Ostrovnoy,68.0531,39.5131,42.91,76,98,10.02,RU,2021-09-12
323,Amazar,53.858,120.875,50.18,95,100,1.97,RU,2021-09-12
324,Finschhafen,-6.6024,147.8681,77.97,83,95,7.81,PG,2021-09-12
325,Xining,36.6167,101.7667,63.21,49,91,9.37,CN,2021-09-12
326,Walvis Bay,-22.9575,14.5053,59.09,65,14,26.24,NA,2021-09-12
327,Zigong,29.3416,104.7769,75.99,88,12,1.52,CN,2021-09-12
328,Diego de Almagro,-26.3667,-70.05,64.53,26,0,4.0,CL,2021-09-12
329,Khor,47.8861,134.9464,51.55,65,47,14.16,RU,2021-09-12
330,Celestún,20.8667,-90.4,79.77,85,100,13.47,MX,2021-09-12
331,Tadine,-21.55,167.8833,69.73,63,48,9.28,NC,2021-09-12
332,Kawalu,-7.3817,108.2082,72.19,98,100,2.51,ID,2021-09-12
333,Ukiah,39.1502,-123.2078,73.04,62,1,0.0,US,2021-09-12
334,Cayenne,4.9333,-52.3333,87.84,72,75,4.0,GF,2021-09-12
335,Tsaitien,30.5833,114.0333,77.61,63,1,7.45,CN,2021-09-12
336,Beyneu,45.3167,55.2,75.43,25,100,8.08,KZ,2021-09-12
337,Pontes e Lacerda,-15.2261,-59.3353,99.0,26,0,7.67,BR,2021-09-12
338,Liverpool,53.4106,-2.9779,64.29,86,90,1.01,GB,2021-09-12
339,Bud,39.447,-86.1758,78.31,65,22,15.41,US,2021-09-12
340,Codrington,-38.2667,141.9667,46.78,81,16,15.46,AU,2021-09-12
341,Kruisfontein,-34.0033,24.7314,59.88,69,92,12.55,ZA,2021-09-12
342,Trairi,-3.2778,-39.2689,87.84,47,93,17.36,BR,2021-09-12
343,Waidhofen,48.5833,11.3333,75.99,49,20,4.61,DE,2021-09-12
344,Solnechnyy,50.7214,136.6319,45.86,91,81,6.29,RU,2021-09-12
345,Ranong,9.9658,98.6348,79.54,87,100,10.38,TH,2021-09-12
346,Rancho Cucamonga,34.1064,-117.5931,90.77,42,1,1.01,US,2021-09-12
347,Poum,-20.2333,164.0167,70.41,77,26,15.43,NC,2021-09-12
348,Kumul,42.8,93.45,76.78,20,100,3.6,CN,2021-09-12
349,Belaya Kholunitsa,58.84,50.8528,45.37,68,28,2.71,RU,2021-09-12
350,Naze,28.3667,129.4833,79.68,85,99,13.29,JP,2021-09-12
351,Arraial do Cabo,-22.9661,-42.0278,72.66,82,68,8.28,BR,2021-09-12
352,Kloulklubed,7.0419,134.2556,82.26,76,83,16.96,PW,2021-09-12
353,Manjeshwar,12.7194,74.8861,81.55,90,98,8.63,IN,2021-09-12
354,Douala,4.0483,9.7043,78.66,82,88,9.48,CM,2021-09-12
355,Gutiérrez,4.2547,-74.0025,61.68,87,82,5.95,CO,2021-09-12
356,Kokopo,-4.352,152.2633,77.5,82,94,8.61,PG,2021-09-12
357,Yangi Marg`ilon,40.4272,71.7189,75.92,27,0,0.0,UZ,2021-09-12
358,Manzanillo,20.3433,-77.1167,86.23,61,6,9.33,CU,2021-09-12
359,Tres Arroyos,-38.3739,-60.2798,59.76,80,76,9.66,AR,2021-09-12
360,Yabēlo,4.8833,38.0833,71.98,38,98,12.66,ET,2021-09-12
361,Constitución,-35.3333,-72.4167,53.35,83,99,22.46,CL,2021-09-12
362,West Wendover,40.7391,-114.0733,70.07,45,3,0.47,US,2021-09-12
363,Huarmey,-10.0681,-78.1522,66.76,76,77,10.54,PE,2021-09-12
364,Sarangani,5.4033,125.4636,81.14,75,95,5.28,PH,2021-09-12
365,Vestmanna,62.1564,-7.1664,54.52,88,72,11.5,FO,2021-09-12
366,Huilong,31.8111,121.655,80.04,91,100,22.86,CN,2021-09-12
367,Doha,25.2867,51.5333,94.98,59,0,14.97,QA,2021-09-12
368,Aksu,41.1231,80.2644,72.97,33,2,8.25,CN,2021-09-12
369,Jieshi,22.8134,115.8257,84.06,78,67,7.16,CN,2021-09-12
370,Zharkent,44.1628,80.0,64.53,43,0,3.49,KZ,2021-09-12
371,Shannon,52.7039,-8.8642,61.14,63,75,8.05,IE,2021-09-12
372,Santiago,-33.4569,-70.6483,50.79,78,97,3.51,CL,2021-09-12
373,Garissa,-0.4536,39.6401,86.07,42,81,21.77,KE,2021-09-12
374,Camacha,33.0833,-16.3333,76.53,65,20,12.66,PT,2021-09-12
375,Maiduguri,11.8464,13.1603,84.43,65,97,3.47,NG,2021-09-12
376,Potamiá,40.7163,24.7286,79.65,51,100,4.52,GR,2021-09-12
377,Padang,-0.9492,100.3543,77.05,86,90,2.75,ID,2021-09-12
378,North Platte,41.1239,-100.7654,67.01,84,100,4.0,US,2021-09-12
379,Dubbo,-32.25,148.6167,48.33,81,0,5.75,AU,2021-09-12
380,Margate,51.3813,1.3862,69.89,77,86,6.96,GB,2021-09-12
381,Carnarvon,-24.8667,113.6333,64.65,65,0,24.65,AU,2021-09-12
382,Shevchenkove,49.6959,37.1735,76.78,38,99,6.49,UA,2021-09-12
383,Khatanga,71.9667,102.5,44.44,68,5,2.93,RU,2021-09-12
384,Trelew,-43.249,-65.3051,61.47,26,56,30.02,AR,2021-09-12
385,Liberal,37.0431,-100.921,79.5,21,33,23.73,US,2021-09-12
386,Les Cayes,18.2,-73.75,87.96,57,56,4.94,HT,2021-09-12
387,Rovaniemi,66.5,25.7167,53.01,76,75,8.05,FI,2021-09-12
388,Iquique,-20.2208,-70.1431,64.83,63,91,8.48,CL,2021-09-12
389,Auki,-8.7676,160.7034,75.99,87,11,4.38,SB,2021-09-12
390,Neosho,36.869,-94.368,78.76,69,0,13.73,US,2021-09-12
391,Ullapool,57.8987,-5.1604,59.34,66,95,3.24,GB,2021-09-12
392,Faya,18.3851,42.4509,72.48,58,92,9.31,SA,2021-09-12
393,Ürümqi,43.801,87.6005,70.75,27,0,2.24,CN,2021-09-12
394,Severo-Kuril'sk,50.6789,156.125,46.09,91,100,13.11,RU,2021-09-12
395,Kandrian,-6.2167,149.55,78.35,90,98,7.07,PG,2021-09-12
396,Rzhaksa,52.1338,42.0264,67.06,55,98,4.41,RU,2021-09-12
397,Dali,25.7,100.1833,65.57,85,98,4.12,CN,2021-09-12
398,Smithers,54.7804,-127.1743,43.12,100,75,2.3,CA,2021-09-12
399,Chodavaram,17.8333,82.95,80.44,82,100,5.08,IN,2021-09-12
400,Tilichiki,60.4667,166.1,32.09,71,13,5.86,RU,2021-09-12
401,Forest Hills,42.9595,-85.4898,77.97,81,75,1.99,US,2021-09-12
402,Barra do Garças,-15.89,-52.2567,103.44,14,0,6.91,BR,2021-09-12
403,Pangnirtung,66.1451,-65.7125,34.02,43,0,7.4,CA,2021-09-12
404,Goderich,43.7501,-81.7165,70.03,65,96,4.32,CA,2021-09-12
405,Egvekinot,66.3167,-179.1667,23.83,83,96,15.08,RU,2021-09-12
406,City of San Pedro,14.35,121.0167,78.35,92,100,2.15,PH,2021-09-12
407,Pangody,65.85,74.4859,43.52,94,100,14.83,RU,2021-09-12
408,Yumen,40.2833,97.2,68.7,38,99,16.13,CN,2021-09-12
409,Bilzen,50.8732,5.5184,73.69,67,20,4.61,BE,2021-09-12
410,Kadi,23.3,72.3333,80.46,93,100,8.12,IN,2021-09-12
411,Tondon,10.3667,-13.35,79.66,86,100,0.72,GN,2021-09-12
412,Araouane,18.9048,-3.5265,109.53,10,6,8.99,ML,2021-09-12
413,Khelyulya,61.7333,30.6833,53.42,98,100,8.57,RU,2021-09-12
414,Buenos Aires,-34.6132,-58.3772,71.92,77,0,10.36,AR,2021-09-12
415,Salalah,17.0151,54.0924,79.47,87,41,6.96,OM,2021-09-12
416,Antofagasta,-23.65,-70.4,64.22,54,99,9.37,CL,2021-09-12
417,Córdoba,-31.4135,-64.1811,88.23,24,0,1.99,AR,2021-09-12
418,Stephenville Crossing,48.5,-58.4318,68.22,78,0,9.26,CA,2021-09-12
419,Ikwiriri,-7.9562,38.9716,79.68,54,25,9.64,TZ,2021-09-12
420,Talaya,61.3833,152.75,29.25,66,81,1.88,RU,2021-09-12
421,Rurrenabaque,-14.4413,-67.5278,92.44,38,71,5.08,BO,2021-09-12
422,Soyo,-6.1349,12.3689,76.98,78,62,8.86,AO,2021-09-12
423,Warrington,53.3925,-2.5802,64.45,85,90,1.01,GB,2021-09-12
424,Aasiaat,68.7098,-52.8699,30.83,75,21,6.69,GL,2021-09-12
425,Thibodaux,29.7958,-90.8229,84.18,84,64,8.01,US,2021-09-12
426,Felipe Carrillo Puerto,19.5833,-88.05,85.8,67,95,9.01,MX,2021-09-12
427,Veere,51.5483,3.6667,71.98,68,40,10.36,NL,2021-09-12
428,Seryshevo,51.0933,128.3786,50.32,86,37,2.93,RU,2021-09-12
429,Umeå,63.8284,20.2597,53.53,100,75,3.44,SE,2021-09-12
430,Bogovina,43.895,21.9403,84.51,22,34,7.29,RS,2021-09-12
431,Ortona,42.3496,14.4039,81.16,67,2,6.24,IT,2021-09-12
432,Klaksvík,62.2266,-6.589,56.32,89,89,12.5,FO,2021-09-12
433,Oranjemund,-28.55,16.4333,60.06,80,100,15.48,NA,2021-09-12
434,Wellington,-41.2866,174.7756,56.86,84,75,5.99,NZ,2021-09-12
435,Sorrento,40.626,14.3744,83.26,52,0,14.32,IT,2021-09-12
436,Mabopane,-25.4977,28.1007,83.44,10,0,2.91,ZA,2021-09-12
437,Petauke,-14.2426,31.3253,76.68,34,100,5.14,ZM,2021-09-12
438,Mount Gambier,-37.8333,140.7667,45.5,86,84,10.29,AU,2021-09-12
439,Samarkand,39.6542,66.9597,72.82,23,0,16.11,UZ,2021-09-12
440,Phenix City,32.471,-85.0008,83.66,75,0,5.77,US,2021-09-12
441,Mbamba,9.9833,13.1,82.51,73,98,2.28,NG,2021-09-12
442,Beringovskiy,63.05,179.3167,34.3,94,99,20.04,RU,2021-09-12
443,Takoradze,4.8845,-1.7554,80.13,80,53,11.32,GH,2021-09-12
444,Kamenka,51.3223,42.7678,65.77,56,100,6.31,RU,2021-09-12
445,Bitung,1.4451,125.1824,76.05,85,100,1.83,ID,2021-09-12
446,Dudinka,69.4058,86.1778,46.02,86,100,9.46,RU,2021-09-12
447,Romanovka,51.7443,42.7527,65.93,56,100,5.61,RU,2021-09-12
448,Lewiston,44.1003,-70.2148,73.42,77,71,3.0,US,2021-09-12
449,São João da Barra,-21.6403,-41.0511,76.69,76,66,10.2,BR,2021-09-12
450,Ploemeur,47.7333,-3.4333,74.86,56,75,3.44,FR,2021-09-12
451,Afuá,-0.1567,-50.3867,90.97,49,26,7.87,BR,2021-09-12
452,Margherita,27.2833,95.6833,80.08,80,2,3.6,IN,2021-09-12
453,Teknāf,20.8624,92.3058,79.05,90,88,17.85,BD,2021-09-12
454,College,64.8569,-147.8028,42.22,73,93,4.23,US,2021-09-12
455,Helena,46.5927,-112.0361,60.31,69,1,1.99,US,2021-09-12
456,Oodweyne,9.4092,45.064,86.16,33,65,18.77,SO,2021-09-12
457,Sioux Lookout,50.1001,-91.917,50.32,62,100,9.1,CA,2021-09-12
458,Jaleshwar,26.6471,85.8008,84.9,74,37,6.53,NP,2021-09-12
459,Petropavlovsk-Kamchatskiy,53.0452,158.6483,42.13,74,100,4.36,RU,2021-09-12
460,Bradford,53.7939,-1.7521,64.54,58,40,4.61,GB,2021-09-12
461,Benguela,-12.5763,13.4055,76.68,75,32,8.79,AO,2021-09-12
462,Saint-Augustin,51.226,-58.6502,59.85,61,27,13.73,CA,2021-09-12
463,Haines Junction,60.7522,-137.5108,39.63,96,62,3.89,CA,2021-09-12
464,Kungurtug,50.5994,97.5228,47.35,56,0,3.51,RU,2021-09-12
465,Raja,8.4596,25.678,79.72,87,100,1.74,SS,2021-09-12
466,Mandalī,33.7499,45.5541,95.83,15,0,12.84,IQ,2021-09-12
467,Sidi Ali,36.0998,0.4206,86.74,37,0,9.44,DZ,2021-09-12
468,Nabire,-3.3667,135.4833,76.01,90,76,3.13,ID,2021-09-12
469,Tatarskaya Pishlya,54.0608,44.8998,64.4,66,72,7.54,RU,2021-09-12
470,Broome,42.2506,-75.833,75.69,67,96,3.0,US,2021-09-12
471,Lappeenranta,61.0587,28.1887,57.25,100,90,5.75,FI,2021-09-12
472,Saint-Pierre,-21.3393,55.4781,71.28,74,20,26.46,RE,2021-09-12
473,High Level,58.5169,-117.136,41.11,100,20,0.0,CA,2021-09-12
474,Camaná,-16.6228,-72.7111,64.72,74,97,11.41,PE,2021-09-12
475,Odesa,46.4775,30.7326,78.73,29,0,6.71,UA,2021-09-12
476,Port Augusta,-32.5,137.7667,41.7,72,27,6.13,AU,2021-09-12
477,Kuvandyk,51.4781,57.3552,53.71,50,17,3.67,RU,2021-09-12
478,Corning,42.1428,-77.0547,75.07,83,100,10.96,US,2021-09-12
479,Amberley,39.2048,-84.428,79.07,66,1,5.99,US,2021-09-12
480,Estelle,29.8458,-90.1067,85.98,70,90,8.99,US,2021-09-12
481,Ndioum,16.5129,-14.6471,98.49,36,76,6.82,SN,2021-09-12
482,Sayyan,15.1718,44.3244,71.69,37,95,3.02,YE,2021-09-12
483,Kayerkan,69.3497,87.7602,46.15,83,100,10.65,RU,2021-09-12
484,Lianzhou,24.7811,112.3825,79.77,72,47,3.33,CN,2021-09-12
485,Baisha,26.5222,110.9311,75.61,76,18,1.66,CN,2021-09-12
486,San Ignacio,17.1561,-89.0714,83.01,77,100,5.26,BZ,2021-09-12
487,Sena Madureira,-9.0656,-68.6569,95.56,38,65,2.13,BR,2021-09-12
488,Bolobo,-2.1667,16.2333,82.33,57,52,3.2,CD,2021-09-12
489,Blenheim,-41.516,173.9528,59.18,80,94,17.87,NZ,2021-09-12
490,Guará,-20.4283,-47.8242,98.33,14,0,5.79,BR,2021-09-12
491,Hakkâri Province,37.5833,44.1667,67.03,21,0,6.4,TR,2021-09-12
492,Hwange,-18.3693,26.5019,83.16,16,34,7.81,ZW,2021-09-12
493,Qujing,25.4833,103.7833,62.28,83,32,3.53,CN,2021-09-12
494,Takaka,-40.85,172.8,57.56,85,97,15.08,NZ,2021-09-12
495,Labuhan,-6.8844,112.2051,79.18,84,72,7.78,ID,2021-09-12
496,Bako,5.7833,36.5667,75.45,50,84,1.97,ET,2021-09-12
497,Agüimes,27.9054,-15.4461,77.63,75,20,12.66,ES,2021-09-12
498,Lleida,41.6167,0.6167,88.95,43,20,5.75,ES,2021-09-12
499,Xiaoyi,34.6178,109.703,73.17,59,0,6.33,CN,2021-09-12
500,Lowestoft,52.4752,1.7516,70.56,75,100,13.56,GB,2021-09-12
501,Ampanihy,-24.7,44.75,79.84,37,14,14.9,MG,2021-09-12
502,Umluj,25.0213,37.2685,83.91,67,42,11.99,SA,2021-09-12
503,Pulandian,39.3953,121.9669,71.73,78,0,3.91,CN,2021-09-12
504,Entre Rios,-11.9419,-38.0844,81.88,52,98,7.38,BR,2021-09-12
505,Colares,38.7992,-9.4469,77.99,74,20,11.5,PT,2021-09-12
506,Samarai,-10.6167,150.6667,78.94,88,52,14.63,PG,2021-09-12
507,Viranşehir,37.2353,39.7631,90.07,20,1,11.45,TR,2021-09-12
508,Korla,41.7597,86.1469,78.28,28,100,12.19,CN,2021-09-12
509,Longhua,23.6137,114.1919,84.15,69,55,1.74,CN,2021-09-12
510,Narrabri,-30.3167,149.7833,52.52,71,2,1.63,AU,2021-09-12
511,Fort-Shevchenko,44.5086,50.263,72.12,53,100,25.61,KZ,2021-09-12
512,Longyearbyen,78.2186,15.6401,35.44,69,40,13.8,SJ,2021-09-12
513,Shache,38.4167,77.2406,76.44,24,81,4.9,CN,2021-09-12
514,Haysville,37.5645,-97.3523,75.6,53,75,16.11,US,2021-09-12
515,San Rafael del Sur,11.8485,-86.4384,82.98,70,28,11.56,NI,2021-09-12
516,Murray,40.6669,-111.888,74.73,63,1,1.99,US,2021-09-12
517,Bodø,67.28,14.405,50.65,84,75,10.36,NO,2021-09-12
518,Arrondissement de Beaune,47.0833,4.75,74.84,43,100,5.46,FR,2021-09-12
519,Salem,11.65,78.1667,76.14,86,100,4.36,IN,2021-09-12
520,Isla Mujeres,21.2311,-86.731,83.79,75,88,14.67,MX,2021-09-12
521,Hirara,24.8,125.2833,84.4,83,100,37.8,JP,2021-09-12
522,Taquaritinga,-21.4061,-48.5047,96.39,18,0,8.08,BR,2021-09-12
523,Priboj,44.6028,18.9314,82.24,20,0,6.64,BA,2021-09-12
524,Lodja,-3.4833,23.4333,80.71,54,90,2.98,CD,2021-09-12
525,Vicuña,-30.0319,-70.7081,64.78,44,0,5.91,CL,2021-09-12
526,Ambilobe,-13.2,49.05,77.47,52,100,6.08,MG,2021-09-12
527,Pudozh,61.8099,36.5345,54.16,72,58,3.36,RU,2021-09-12
528,Namatanai,-3.6667,152.4333,79.92,80,30,9.22,PG,2021-09-12
529,Kuusamo,65.9667,29.1833,46.44,93,90,8.05,FI,2021-09-12
530,Kulhudhuffushi,6.6221,73.07,82.85,77,100,11.9,MV,2021-09-12
531,Hammerfest,70.6634,23.6821,52.25,66,0,2.3,NO,2021-09-12
532,Octeville,49.6261,-1.6435,66.88,72,75,4.61,FR,2021-09-12
533,Turukhansk,65.8167,87.9833,48.07,81,100,16.11,RU,2021-09-12
534,Peski,55.2163,38.7626,68.59,67,76,5.1,RU,2021-09-12
535,Sussex,41.1834,-74.6663,74.98,76,60,5.01,US,2021-09-12
536,Manakara,-22.1333,48.0167,69.06,84,0,7.36,MG,2021-09-12
537,Ixtapa,20.7,-105.2,82.22,87,6,1.01,MX,2021-09-12
538,Maryville,35.7565,-83.9705,79.07,71,1,0.0,US,2021-09-12
539,Dhārchula,29.85,80.5333,72.68,84,100,3.36,IN,2021-09-12
540,Alofi,-19.0595,-169.9187,75.54,80,100,8.23,NU,2021-09-12
541,Oriximiná,-1.7656,-55.8661,96.51,33,0,6.04,BR,2021-09-12
542,Stokmarknes,68.5646,14.9108,51.49,71,75,13.8,NO,2021-09-12
543,La Cruz,23.9167,-106.9,78.64,68,40,4.97,MX,2021-09-12
544,Houma,29.5958,-90.7195,84.99,80,87,13.49,US,2021-09-12
545,Kars,40.602,43.095,67.05,39,73,8.66,TR,2021-09-12
546,Russell,32.3502,-85.1999,81.0,75,1,5.75,US,2021-09-12
547,Ellisras,-23.6649,27.7443,81.57,11,0,7.2,ZA,2021-09-12
548,Kuril'sk,45.2333,147.8833,58.71,96,100,10.74,RU,2021-09-12
549,Andenes,69.3143,16.1194,48.18,76,75,9.22,NO,2021-09-12
550,Chenzhou,25.8,113.0333,80.15,74,73,1.12,CN,2021-09-12
551,Makkah al Mukarramah,21.4267,39.8261,94.91,30,47,15.59,SA,2021-09-12
552,Morros,-9.4467,-46.3003,96.71,16,2,10.2,BR,2021-09-12
553,Mossamedes,-15.1961,12.1522,71.85,77,17,11.39,AO,2021-09-12
554,Tagāb,34.855,69.6492,76.51,42,0,1.1,AF,2021-09-12
555,Luleå,65.5842,22.1547,50.07,100,90,3.44,SE,2021-09-12
556,Borogontsy,62.6683,131.1683,45.7,58,9,4.76,RU,2021-09-12
557,Nehe,48.4833,124.8333,51.71,84,76,6.29,CN,2021-09-12
558,Mogadishu,2.0371,45.3438,75.07,88,90,8.05,SO,2021-09-12
559,Srinagar,34.0833,74.8167,64.17,74,3,1.57,IN,2021-09-12
560,Heraclea,37.5133,34.0467,78.13,27,8,4.7,TR,2021-09-12
561,Gölköy,40.6875,37.6178,62.55,85,56,4.76,TR,2021-09-12
562,Sur,22.5667,59.5289,87.85,58,85,4.65,OM,2021-09-12
563,Calbuco,-41.768,-73.1273,47.71,82,90,15.52,CL,2021-09-12
564,Varberg,57.1056,12.2508,66.06,91,69,14.85,SE,2021-09-12
565,Skała,50.2305,19.8536,73.06,62,20,9.22,PL,2021-09-12
566,Sawtell,-30.3833,153.1,71.62,49,40,12.66,AU,2021-09-12
567,Cumberland,35.0502,-78.8664,82.87,62,0,3.0,US,2021-09-12
568,Vilkija,55.05,23.5833,71.53,62,100,6.42,LT,2021-09-12
569,Karema,-6.8205,30.4389,81.25,45,21,6.93,TZ,2021-09-12
570,Kattivākkam,13.2167,80.3167,86.09,71,100,16.42,IN,2021-09-12
571,Nānākuli,21.3906,-158.1547,76.1,88,75,0.0,US,2021-09-12
572,Buraidah,26.326,43.975,94.96,12,0,7.92,SA,2021-09-12
573,Marawi,7.9986,124.2928,65.64,92,100,1.48,PH,2021-09-12
574,Swift Current,50.2834,-107.8014,50.81,93,90,11.5,CA,2021-09-12
575,Macenta,8.5435,-9.471,70.14,98,100,0.65,GN,2021-09-12
576,Kholodnyy,62.7167,147.95,33.33,62,25,1.61,RU,2021-09-12
577,Clyde River,70.4692,-68.5914,32.81,69,38,25.19,CA,2021-09-12
578,Cerinza,5.9557,-72.9478,64.53,56,69,3.91,CO,2021-09-12
579,Prainha,-1.8,-53.48,94.78,35,0,5.35,BR,2021-09-12
580,Necochea,-38.5473,-58.7368,61.03,73,81,13.02,AR,2021-09-12
581,Acopiara,-6.0953,-39.4525,94.05,23,28,7.99,BR,2021-09-12
582,Urengoy,65.9667,78.3667,44.92,96,93,9.1,RU,2021-09-12
583,Aswān,24.0934,32.907,98.4,12,3,15.86,EG,2021-09-12
584,Aitape,-3.1374,142.3475,78.94,87,99,5.41,PG,2021-09-12
585,Bundaberg,-24.85,152.35,69.22,88,43,3.0,AU,2021-09-12
586,Maxixe,-23.8597,35.3472,72.73,57,0,9.19,MZ,2021-09-12
587,Muros,42.7762,-9.0603,82.9,79,100,4.18,ES,2021-09-12
588,Inuvik,68.3499,-133.7218,47.41,100,90,8.05,CA,2021-09-12
589,Weihai,37.5017,122.1136,70.39,93,2,6.33,CN,2021-09-12
590,Nikopol',47.5712,34.3964,76.87,39,98,6.85,UA,2021-09-12
591,Kirakira,-10.4544,161.9205,78.55,83,17,7.74,SB,2021-09-12
592,Burnie,-41.0667,145.9167,40.23,81,1,7.85,AU,2021-09-12
