,City,Latitude,Longitude,Tempature,Humidity,Cloudiness,Windspeed,Country,Date of Weather
0,Donegal,54.65,-8.1167,68.04,63,90,3.56,IE,09-12-2021
1,Ushuaia,-54.8,-68.3,42.46,70,75,0.0,AR,09-12-2021
2,Bairiki Village,1.3292,172.9752,82.06,74,97,21.88,KI,09-12-2021
3,George Town,5.4112,100.3354,80.89,82,20,0.0,MY,09-12-2021
4,Adrar,20.5022,-10.0711,104.59,15,89,10.74,MR,09-12-2021
5,Nogales,31.3086,-110.9422,84.07,64,1,0.0,MX,09-12-2021
6,Isangel,-19.55,169.2667,72.25,83,51,8.41,VU,09-12-2021
7,Bethel,41.3712,-73.414,77.2,74,1,3.0,US,09-12-2021
8,Busselton,-33.65,115.3333,48.09,80,97,3.8,AU,09-12-2021
9,Tuatapere,-46.1333,167.6833,47.82,86,95,8.25,NZ,09-12-2021
10,Tanete,-3.9443,119.7848,75.07,93,100,0.07,ID,09-12-2021
11,Touros,-5.1989,-35.4608,86.9,60,65,18.25,BR,09-12-2021
12,Erenhot,43.6475,111.9767,59.76,54,100,14.74,CN,09-12-2021
13,Ribeira Grande,38.5167,-28.7,73.8,60,40,8.05,PT,09-12-2021
14,Upernavik,72.7868,-56.1549,34.05,65,100,28.07,GL,09-12-2021
15,Rzhanitsa,53.4284,33.923,72.05,60,81,3.27,RU,09-12-2021
16,Atuona,-9.8,-139.0333,77.88,72,6,23.31,PF,09-12-2021
17,Saint-Philippe,-21.3585,55.7679,71.19,81,43,17.58,RE,09-12-2021
18,Mataura,-46.1927,168.8643,47.48,98,100,4.21,NZ,09-12-2021
19,Ulaangom,49.9811,92.0667,58.44,27,66,3.98,MN,09-12-2021
20,Mount Isa,-20.7333,139.5,71.37,37,40,0.0,AU,09-12-2021
21,Barrow,71.2906,-156.7887,35.62,93,90,4.61,US,09-12-2021
22,Vao,-22.6667,167.4833,68.45,64,39,12.17,NC,09-12-2021
23,Fare,-16.7,-151.0167,77.13,71,63,17.96,PF,09-12-2021
24,Cabo San Lucas,22.8909,-109.9124,85.51,81,1,10.36,MX,09-12-2021
25,Severo-Yeniseyskiy,60.3725,93.0408,42.62,97,100,4.0,RU,09-12-2021
26,Lüderitz,-26.6481,15.1594,62.67,70,53,24.27,NA,09-12-2021
27,Kapaa,22.0752,-159.319,77.32,79,90,3.0,US,09-12-2021
28,Olafsvik,64.8945,-23.7142,52.14,93,100,35.86,IS,09-12-2021
29,Hermanus,-34.4187,19.2345,58.89,75,100,9.46,ZA,09-12-2021
30,Sørland,67.667,12.6934,50.07,87,100,22.26,NO,09-12-2021
31,Dongsheng,39.8161,109.9776,67.84,43,100,5.99,CN,09-12-2021
32,Saint Paul Harbor,57.79,-152.4072,51.31,87,90,19.57,US,09-12-2021
33,Jalu,29.0331,21.5482,98.13,25,0,18.41,LY,09-12-2021
34,Vardø,70.3705,31.1107,46.6,70,40,10.36,NO,09-12-2021
35,Somerville,42.3876,-71.0995,78.51,68,1,1.01,US,09-12-2021
36,Sri Aman,1.2376,111.4621,75.25,94,100,0.0,MY,09-12-2021
37,Carnarvon,-24.8667,113.6333,62.67,77,0,19.57,AU,09-12-2021
38,Norman Wells,65.282,-126.8329,41.04,100,75,3.44,CA,09-12-2021
39,Port Hardy,50.6996,-127.4199,53.6,100,75,2.3,CA,09-12-2021
40,Lavrentiya,65.5833,-171.0,39.45,80,99,12.62,RU,09-12-2021
41,Nanton,50.3501,-113.7687,51.08,76,99,4.29,CA,09-12-2021
42,Rikitea,-23.1203,-134.9692,72.81,75,20,4.76,PF,09-12-2021
43,Tasiilaq,65.6145,-37.6368,35.76,78,100,42.32,GL,09-12-2021
44,Mar del Plata,-38.0023,-57.5575,59.02,88,75,11.5,AR,09-12-2021
45,Deep River,46.1001,-77.4995,67.42,49,64,10.33,CA,09-12-2021
46,Najrān,17.4924,44.1277,92.05,11,85,13.78,SA,09-12-2021
47,Tuy Hoa,13.0833,109.3,80.65,76,67,14.65,VN,09-12-2021
48,Punta Arenas,-53.15,-70.9167,41.11,81,0,9.22,CL,09-12-2021
49,Avarua,-21.2078,-159.775,73.45,88,90,10.36,CK,09-12-2021
50,Turukhansk,65.8167,87.9833,48.6,80,100,16.42,RU,09-12-2021
51,Lyngdal,58.1376,7.07,73.45,76,15,16.98,NO,09-12-2021
52,Zyryanka,65.75,150.85,37.74,57,97,7.23,RU,09-12-2021
53,Souillac,-20.5167,57.5167,72.36,78,75,19.57,MU,09-12-2021
54,Virden,39.5009,-89.7679,79.72,65,13,16.82,US,09-12-2021
55,Nālūt,30.3333,10.85,93.7,16,0,13.18,LY,09-12-2021
56,East London,-33.0153,27.9116,67.14,82,75,6.91,ZA,09-12-2021
57,Shimoda,34.6667,138.95,73.51,83,100,6.53,JP,09-12-2021
58,Huarmey,-10.0681,-78.1522,68.13,73,64,11.92,PE,09-12-2021
59,Aitape,-3.1374,142.3475,78.98,87,100,6.42,PG,09-12-2021
60,Salalah,17.0151,54.0924,82.49,83,40,8.05,OM,09-12-2021
61,Gorom-Gorom,14.4439,-0.2361,96.48,37,96,10.94,BF,09-12-2021
62,Port Alfred,-33.5906,26.891,65.7,78,35,10.04,ZA,09-12-2021
63,Montevideo,-34.8335,-56.1674,64.51,79,0,11.01,UY,09-12-2021
64,Talnakh,69.4865,88.3972,46.29,83,100,5.12,RU,09-12-2021
65,Yellowknife,62.456,-114.3525,48.72,100,90,8.05,CA,09-12-2021
66,Henties Bay,-22.116,14.2845,57.85,83,4,14.83,NA,09-12-2021
67,Novikovo,51.1537,37.8879,68.65,46,100,3.51,RU,09-12-2021
68,Cape Town,-33.9258,18.4232,63.1,67,75,5.01,ZA,09-12-2021
69,Nikolskoye,59.7035,30.7861,62.02,91,100,5.46,RU,09-12-2021
70,Winnemucca,40.973,-117.7357,55.45,54,1,0.0,US,09-12-2021
71,New Norfolk,-42.7826,147.0587,45.91,67,99,3.0,AU,09-12-2021
72,Saskylakh,71.9167,114.0833,43.59,63,9,5.64,RU,09-12-2021
73,Esperance,-33.8667,121.9,49.84,74,8,11.39,AU,09-12-2021
74,Cap-aux-Meules,47.3821,-61.8597,64.45,77,40,16.11,CA,09-12-2021
75,Zhigansk,66.7697,123.3711,45.39,66,100,7.31,RU,09-12-2021
76,Lorengau,-2.0226,147.2712,82.04,77,70,7.27,PG,09-12-2021
77,Qaanaaq,77.484,-69.3632,26.55,62,5,6.51,GL,09-12-2021
78,Valparaíso,-33.0393,-71.6273,56.32,94,75,11.5,CL,09-12-2021
79,Vila Velha,-20.3297,-40.2925,84.15,65,20,12.66,BR,09-12-2021
80,Abu Samrah,35.3029,37.1841,79.29,53,26,17.52,SY,09-12-2021
81,Warman,52.3168,-106.5679,53.1,87,75,6.91,CA,09-12-2021
82,Bluff,-46.6,168.3333,47.8,74,90,26.02,NZ,09-12-2021
83,Vaini,-21.2,-175.2,69.96,94,20,3.44,TO,09-12-2021
84,Geraldton,-28.7667,114.6,52.21,82,0,11.5,AU,09-12-2021
85,Villa Carlos Paz,-31.4241,-64.4978,84.4,13,0,8.01,AR,09-12-2021
86,Muros,42.7762,-9.0603,81.1,82,100,3.98,ES,09-12-2021
87,Chui,-33.6971,-53.4616,65.75,73,100,12.26,UY,09-12-2021
88,Bambous Virieux,-20.3428,57.7575,72.21,78,75,19.57,MU,09-12-2021
89,Boffa,10.1667,-14.0333,79.21,85,100,2.93,GN,09-12-2021
90,Svetlaya,46.5389,138.3297,54.21,88,100,18.41,RU,09-12-2021
91,Banda Aceh,5.5577,95.3222,79.25,78,100,13.78,ID,09-12-2021
92,Bredasdorp,-34.5322,20.0403,60.12,72,76,11.5,ZA,09-12-2021
93,Beloha,-25.1667,45.05,70.45,69,0,17.02,MG,09-12-2021
94,Ahipara,-35.1667,173.1667,51.13,85,5,8.3,NZ,09-12-2021
95,Caririaçu,-7.0422,-39.2836,92.37,20,66,7.14,BR,09-12-2021
96,Hithadhoo,-0.6,73.0833,84.25,68,93,10.11,MV,09-12-2021
97,Castro,-24.7911,-50.0119,84.09,35,0,8.48,BR,09-12-2021
98,Puerto Ayora,-0.7393,-90.3518,71.56,96,92,7.0,EC,09-12-2021
99,Mossamedes,-15.1961,12.1522,75.83,73,20,12.66,AO,09-12-2021
100,Vostok,46.4856,135.8833,45.77,99,100,2.68,RU,09-12-2021
101,Bandarbeyla,9.4942,50.8122,77.95,80,8,35.16,SO,09-12-2021
102,Ilulissat,69.2167,-51.1,28.42,64,100,4.61,GL,09-12-2021
103,Biltine,14.5333,20.9167,94.32,35,99,5.55,TD,09-12-2021
104,Voznesen'ye,61.0106,35.4781,54.95,84,100,6.8,RU,09-12-2021
105,Wollongong,-34.4333,150.8833,60.55,53,36,10.36,AU,09-12-2021
106,Torbay,47.6666,-52.7314,67.75,60,20,17.27,CA,09-12-2021
107,Pravda,46.9396,142.009,53.6,92,100,18.3,RU,09-12-2021
108,Heihe,50.2441,127.4902,45.18,90,81,3.65,CN,09-12-2021
109,Sitka,57.0531,-135.33,55.29,88,90,5.75,US,09-12-2021
110,Walvis Bay,-22.9575,14.5053,63.55,63,11,12.66,NA,09-12-2021
111,Shache,38.4167,77.2406,75.58,25,84,3.33,CN,09-12-2021
112,Zhob,31.3411,69.4481,79.38,53,1,1.59,PK,09-12-2021
113,El Batey,19.7667,-70.5167,89.58,84,40,18.41,DO,09-12-2021
114,Hilo,19.7297,-155.09,71.33,87,90,8.05,US,09-12-2021
115,Westport,41.1415,-73.3579,78.73,74,1,4.0,US,09-12-2021
116,San Patricio,28.017,-97.5169,87.67,55,90,11.48,US,09-12-2021
117,Karratha,-20.7377,116.8463,72.43,58,0,11.61,AU,09-12-2021
118,Freeport,40.6576,-73.5832,79.29,69,1,8.01,US,09-12-2021
119,Nanortalik,60.1432,-45.2371,39.7,84,100,26.69,GL,09-12-2021
120,Provideniya,64.3833,-173.3,40.42,80,34,12.46,RU,09-12-2021
121,Basoko,1.2391,23.616,75.97,83,98,2.62,CD,09-12-2021
122,Iquique,-20.2208,-70.1431,60.84,66,72,11.18,CL,09-12-2021
123,Manisa Province,38.8333,28.1667,80.08,30,7,10.56,TR,09-12-2021
124,Ayagoz,47.9714,80.4392,48.63,48,51,8.79,KZ,09-12-2021
125,Cidreira,-30.1811,-50.2056,68.77,76,5,13.42,BR,09-12-2021
126,Chengde,40.9725,117.9361,63.79,97,99,1.28,CN,09-12-2021
127,Bathsheba,13.2167,-59.5167,90.21,84,75,6.91,BB,09-12-2021
128,Albany,42.6001,-73.9662,74.62,75,94,5.39,US,09-12-2021
129,Abu Kamal,34.4506,40.9171,88.02,25,0,7.83,SY,09-12-2021
130,Kitob,39.0843,66.8332,72.18,19,0,5.39,UZ,09-12-2021
131,Ganzhou,28.8184,115.4327,74.66,87,4,5.99,CN,09-12-2021
132,Bengkulu,-3.8004,102.2655,76.3,90,67,3.18,ID,09-12-2021
133,Xai-Xai,-25.0519,33.6442,69.22,71,0,12.5,MZ,09-12-2021
134,Samarai,-10.6167,150.6667,78.78,88,48,14.2,PG,09-12-2021
135,Omboué,-1.5746,9.2618,77.59,80,97,9.1,GA,09-12-2021
136,Boguchany,58.3814,97.4531,51.28,90,100,1.81,RU,09-12-2021
137,Nizhniy Tsasuchey,50.5167,115.1333,43.81,90,13,6.17,RU,09-12-2021
138,Tautira,-17.7333,-149.15,71.62,64,61,12.28,PF,09-12-2021
139,Ouadda,8.0777,22.4007,73.08,93,100,3.94,CF,09-12-2021
140,Sal Rei,16.1833,-22.9167,89.8,55,40,10.36,CV,09-12-2021
141,Lashio,22.9333,97.75,69.01,98,3,0.65,MM,09-12-2021
142,Betioky,-23.7167,44.3833,77.94,38,4,18.63,MG,09-12-2021
143,Nyurba,63.2842,118.3319,48.16,76,71,3.4,RU,09-12-2021
144,Calvinia,-31.4707,19.776,60.78,51,100,11.61,ZA,09-12-2021
145,Aquiraz,-3.9014,-38.3911,87.89,53,42,17.52,BR,09-12-2021
146,Kinsale,51.7075,-8.5306,56.57,88,75,9.22,IE,09-12-2021
147,Kudahuvadhoo,2.6708,72.8944,83.39,70,98,8.23,MV,09-12-2021
148,Faya,18.3851,42.4509,75.31,62,91,6.69,SA,09-12-2021
149,Road Town,18.4167,-64.6167,87.21,79,20,14.97,VG,09-12-2021
150,Sawtell,-30.3833,153.1,71.62,62,40,11.5,AU,09-12-2021
151,Kaitangata,-46.2817,169.8464,45.7,89,92,11.1,NZ,09-12-2021
152,Lagoa,39.05,-27.9833,69.24,76,100,23.24,PT,09-12-2021
153,College,64.8569,-147.8028,42.22,78,40,0.0,US,09-12-2021
154,Kyren,51.6828,102.1408,50.43,78,11,2.51,RU,09-12-2021
155,Kavieng,-2.5744,150.7967,82.72,76,47,13.51,PG,09-12-2021
156,Padang,-0.9492,100.3543,75.25,86,91,2.68,ID,09-12-2021
157,Clyde River,70.4692,-68.5914,32.23,80,75,37.98,CA,09-12-2021
158,Noumea,-22.2763,166.4572,62.58,78,0,7.96,NC,09-12-2021
159,Sablé-sur-Sarthe,47.8376,-0.3329,75.92,33,12,6.22,FR,09-12-2021
160,Banjar,-8.19,114.9675,78.66,90,60,3.33,ID,09-12-2021
161,Mackay,-21.15,149.2,67.05,88,37,0.0,AU,09-12-2021
162,Santa Cruz Cabrália,-16.2781,-39.0247,80.83,65,40,11.5,BR,09-12-2021
163,Hornepayne,49.2138,-84.7705,52.12,68,100,10.0,CA,09-12-2021
164,Cancún,21.1743,-86.8466,85.93,70,40,13.8,MX,09-12-2021
165,Turinsk,58.0458,63.696,42.71,66,90,8.86,RU,09-12-2021
166,Agadir,30.4202,-9.5982,77.45,51,97,12.53,MA,09-12-2021
167,Andenes,69.3143,16.1194,48.18,76,75,9.22,NO,09-12-2021
168,Luanda,-8.8368,13.2343,77.0,78,0,10.36,AO,09-12-2021
169,Erdenet,49.0333,104.0833,45.97,85,4,3.71,MN,09-12-2021
170,Togur,58.3631,82.8265,42.08,94,98,10.87,RU,09-12-2021
171,Sola,-13.8833,167.55,77.67,94,20,3.44,VU,09-12-2021
172,Port Blair,11.6667,92.75,81.21,84,95,19.37,IN,09-12-2021
173,Thompson,55.7435,-97.8558,41.16,81,75,6.91,CA,09-12-2021
174,Jamestown,42.097,-79.2353,72.3,83,88,11.01,US,09-12-2021
175,Stepnyak,52.8339,70.7803,44.31,53,82,9.62,KZ,09-12-2021
176,Skibbereen,51.55,-9.2667,57.0,91,100,12.37,IE,09-12-2021
177,Deer Lake,49.1667,-57.4316,67.86,52,40,14.97,CA,09-12-2021
178,Natividad,16.0443,120.7987,75.27,93,100,2.48,PH,09-12-2021
179,Rosetta,31.4044,30.4164,78.8,64,0,6.08,EG,09-12-2021
180,Gryazi,52.4966,39.9359,66.04,55,97,4.47,RU,09-12-2021
181,Rio Grande,-32.035,-52.0986,69.91,78,53,13.56,BR,09-12-2021
182,Nemuro,43.3236,145.575,63.25,87,90,17.29,JP,09-12-2021
183,Ketchikan,55.3422,-131.6461,54.07,100,90,9.22,US,09-12-2021
184,Arlit,18.7369,7.3853,106.23,12,5,7.45,NE,09-12-2021
185,Pochutla,15.7432,-96.4661,77.85,90,100,2.42,MX,09-12-2021
186,Melbourne,28.0836,-80.6081,90.03,81,1,4.0,US,09-12-2021
187,Amapá,1.0,-52.0,95.43,32,4,4.72,BR,09-12-2021
188,Magistral'nyy,56.1725,107.4458,38.71,96,12,3.78,RU,09-12-2021
189,Vila Franca do Campo,37.7167,-25.4333,72.01,75,100,21.79,PT,09-12-2021
190,Mabiton,12.8334,123.2612,83.32,71,100,1.03,PH,09-12-2021
191,Lapua,62.9693,23.0088,58.21,99,100,2.55,FI,09-12-2021
192,Mirny,62.5353,113.9611,49.21,96,100,6.55,RU,09-12-2021
193,Bonavista,48.6499,-53.1147,69.8,70,0,3.74,CA,09-12-2021
194,Grand Gaube,-20.0064,57.6608,72.37,72,23,11.99,MU,09-12-2021
195,Airai,-8.9266,125.4092,59.88,91,76,1.48,TL,09-12-2021
196,Khāsh,28.2211,61.2158,77.76,12,0,15.03,IR,09-12-2021
197,Texarkana,33.4251,-94.0477,82.83,59,1,7.0,US,09-12-2021
198,Biak,-0.9131,122.8766,75.16,84,99,1.48,ID,09-12-2021
199,Katsuura,35.1333,140.3,75.31,85,100,18.97,JP,09-12-2021
200,Yaan,7.3833,8.5667,82.31,79,68,6.11,NG,09-12-2021
201,Pytalovo,57.0679,27.9138,63.46,89,83,7.87,RU,09-12-2021
202,Baculin,7.4525,126.5842,77.27,85,76,3.6,PH,09-12-2021
203,Sambava,-14.2667,50.1667,71.35,88,98,14.61,MG,09-12-2021
204,Fort Nelson,58.8053,-122.7002,44.19,87,75,8.05,CA,09-12-2021
205,Colares,38.7992,-9.4469,77.99,74,20,12.66,PT,09-12-2021
206,Namatanai,-3.6667,152.4333,79.72,80,38,8.25,PG,09-12-2021
207,Hong Kong,22.2855,114.1577,88.32,80,95,1.01,HK,09-12-2021
208,Ancud,-41.8697,-73.8203,47.43,80,83,16.02,CL,09-12-2021
209,Andira,-0.7385,-47.8437,85.64,67,88,8.21,BR,09-12-2021
210,Chilliwack,49.1747,-121.9443,60.78,98,99,2.3,CA,09-12-2021
211,Ponta do Sol,32.6667,-17.1,81.72,66,56,9.98,PT,09-12-2021
212,Tuktoyaktuk,69.4541,-133.0374,42.8,100,90,10.36,CA,09-12-2021
213,Namysłów,51.0759,17.7228,74.66,68,70,6.33,PL,09-12-2021
214,Nizwá,22.9333,57.5333,93.79,30,99,5.03,OM,09-12-2021
215,Mabaruma,8.2,-59.7833,89.6,66,75,13.8,GY,09-12-2021
216,Byron Bay,-28.65,153.6167,67.95,82,2,15.12,AU,09-12-2021
217,Faanui,-16.4833,-151.75,76.87,74,24,16.82,PF,09-12-2021
218,Carballo,43.213,-8.691,80.29,59,94,5.01,ES,09-12-2021
219,Kokopo,-4.352,152.2633,77.31,82,80,8.41,PG,09-12-2021
220,Bragança,-1.0536,-46.7656,85.6,64,92,6.91,BR,09-12-2021
221,Te Anau,-45.4167,167.7167,41.54,89,100,3.65,NZ,09-12-2021
222,Dikson,73.5069,80.5464,40.53,85,15,6.96,RU,09-12-2021
223,Kurdzhinovo,43.9884,40.9552,56.25,95,9,3.38,RU,09-12-2021
224,Fairbanks,64.8378,-147.7164,42.24,78,1,0.0,US,09-12-2021
225,Blagoyevo,63.3667,47.9167,41.63,77,100,3.62,RU,09-12-2021
226,Okhotsk,59.3833,143.3,47.73,82,14,1.19,RU,09-12-2021
227,Olinda,-8.0089,-34.8553,82.13,61,75,11.5,BR,09-12-2021
228,Chokurdakh,70.6333,147.9167,43.21,73,71,8.61,RU,09-12-2021
229,Moss Vale,-34.55,150.3833,46.0,84,34,5.1,AU,09-12-2021
230,Havre-St-Pierre,50.2334,-63.5986,55.76,94,90,6.91,CA,09-12-2021
231,Rameshki,57.3439,36.0453,63.05,81,66,4.56,RU,09-12-2021
232,Baní,18.2833,-70.3333,87.24,58,22,14.12,DO,09-12-2021
233,Butaritari,3.0707,172.7902,83.1,74,100,21.72,KI,09-12-2021
234,Narsaq,60.9167,-46.05,46.62,80,100,6.38,GL,09-12-2021
235,Eyl,7.9803,49.8164,79.09,74,61,23.82,SO,09-12-2021
236,Wukari,7.85,9.7833,85.05,70,99,5.88,NG,09-12-2021
237,Nouadhibou,20.931,-17.0347,84.18,70,99,14.97,MR,09-12-2021
238,Hualmay,-11.0964,-77.6139,66.29,73,56,10.92,PE,09-12-2021
239,Baiyin,36.5583,104.2081,72.48,57,100,16.84,CN,09-12-2021
240,Saint-Augustin,51.226,-58.6502,60.35,66,45,13.87,CA,09-12-2021
241,Alyangula,-13.8483,136.4192,75.07,94,1,3.44,AU,09-12-2021
242,Trairi,-3.2778,-39.2689,87.06,51,94,18.54,BR,09-12-2021
243,Marsh Harbour,26.5412,-77.0636,85.01,70,83,15.41,BS,09-12-2021
244,Hobart,-42.8794,147.3294,46.26,77,90,1.01,AU,09-12-2021
245,Katangli,51.7102,143.2326,49.01,76,4,13.44,RU,09-12-2021
246,Cornélio Procópio,-23.1811,-50.6467,86.63,29,0,6.13,BR,09-12-2021
247,Araguaína,-7.1911,-48.2072,99.79,24,10,6.49,BR,09-12-2021
248,The Valley,18.217,-63.0578,88.11,66,75,18.41,AI,09-12-2021
249,Esil,51.9556,66.4042,48.78,48,68,5.57,KZ,09-12-2021
250,Khānāpur,15.6333,74.5167,73.42,98,100,9.13,IN,09-12-2021
251,Deputatsky,69.3,139.9,39.69,57,12,5.39,RU,09-12-2021
252,Somerset,40.5668,-74.5496,79.92,71,1,3.0,US,09-12-2021
253,Koz'modem'yansk,56.3367,46.5711,54.43,93,58,4.88,RU,09-12-2021
254,Lebu,-37.6167,-73.65,51.37,79,100,19.64,CL,09-12-2021
255,Būgai,55.4167,22.6167,62.85,91,100,8.39,LT,09-12-2021
256,Sarandi,-23.4436,-51.8739,87.35,42,0,12.66,BR,09-12-2021
257,Ures,29.4333,-110.4,87.28,32,47,4.36,MX,09-12-2021
258,Faro,37.0194,-7.9322,76.78,57,0,8.05,PT,09-12-2021
259,Qidong,31.8128,121.6561,80.04,92,100,23.67,CN,09-12-2021
260,Broome,42.2506,-75.833,76.17,66,97,3.0,US,09-12-2021
261,Leningradskiy,69.3833,178.4167,28.53,96,100,16.6,RU,09-12-2021
262,Hofn,64.2539,-15.2082,44.92,81,100,10.38,IS,09-12-2021
263,Port Elizabeth,-33.918,25.5701,61.11,80,68,10.67,ZA,09-12-2021
264,Kemijärvi,66.7131,27.4306,49.73,79,100,5.44,FI,09-12-2021
265,Wagar,16.1525,36.2032,99.39,29,51,8.28,SD,09-12-2021
266,Rome,43.2128,-75.4557,76.86,81,90,3.44,US,09-12-2021
267,Narrabri,-30.3167,149.7833,57.29,51,1,6.91,AU,09-12-2021
268,Saint-Agapit,46.5629,-71.4352,69.28,77,61,15.88,CA,09-12-2021
269,Ostrovnoy,68.0531,39.5131,42.35,73,98,10.42,RU,09-12-2021
270,Berlevåg,70.8578,29.0864,46.4,79,50,12.97,NO,09-12-2021
271,Salym,60.0625,71.4789,37.13,96,100,11.56,RU,09-12-2021
272,Cherskiy,68.75,161.3,33.64,65,100,9.04,RU,09-12-2021
273,Moussoro,13.6408,16.4901,91.31,43,98,5.84,TD,09-12-2021
274,Mahajanga,-15.7167,46.3167,86.02,37,20,11.5,MG,09-12-2021
275,Fortuna,40.5982,-124.1573,55.92,68,90,1.99,US,09-12-2021
276,Yulara,-25.2406,130.9889,62.44,45,0,10.36,AU,09-12-2021
277,Nador,35.174,-2.9287,86.07,78,40,6.91,MA,09-12-2021
278,Chapais,49.7834,-74.8492,49.78,91,100,10.78,CA,09-12-2021
279,Segamat,2.5148,102.8158,80.42,90,97,3.33,MY,09-12-2021
280,Arrondissement de Mende,44.6667,3.5,68.68,35,60,5.53,FR,09-12-2021
281,Husavik,66.0449,-17.3389,44.51,79,100,9.31,IS,09-12-2021
282,Khatanga,71.9667,102.5,43.88,68,6,3.22,RU,09-12-2021
283,Los Llanos de Aridane,28.6585,-17.9182,80.35,61,0,8.05,ES,09-12-2021
284,Palmer,42.1584,-72.3287,76.44,67,75,4.0,US,09-12-2021
285,Severo-Kuril'sk,50.6789,156.125,46.47,89,100,13.4,RU,09-12-2021
286,Lindi,-10.0,39.7167,76.06,73,68,12.1,TZ,09-12-2021
287,Knysna,-34.0363,23.0471,64.78,82,89,5.64,ZA,09-12-2021
288,Moa,20.6569,-74.9403,86.45,68,86,14.81,CU,09-12-2021
289,Plettenberg Bay,-34.0527,23.3716,61.11,83,88,4.97,ZA,09-12-2021
290,Santa,17.486,120.4348,77.18,89,100,7.2,PH,09-12-2021
291,Nha Trang,12.25,109.1833,82.4,81,98,6.31,VN,09-12-2021
292,Sistranda,63.7256,8.834,53.91,70,89,17.92,NO,09-12-2021
293,Xiaoweizhai,26.1903,107.5125,68.77,95,55,3.74,CN,09-12-2021
294,Casablanca,33.5928,-7.6192,89.82,65,0,16.11,MA,09-12-2021
295,Portland,45.5234,-122.6762,65.08,84,75,1.01,US,09-12-2021
296,Pevek,69.7008,170.3133,29.95,90,100,7.4,RU,09-12-2021
297,Iqaluit,63.7506,-68.5145,33.53,60,90,20.71,CA,09-12-2021
298,Qingdao,36.0986,120.3719,73.0,88,0,4.47,CN,09-12-2021
299,Inverell,-29.7833,151.1167,59.11,73,60,1.99,AU,09-12-2021
300,Beringovskiy,63.05,179.3167,34.41,92,99,21.59,RU,09-12-2021
301,Shingū,33.7333,135.9833,75.9,93,100,4.09,JP,09-12-2021
302,Terney,45.0503,136.6092,56.07,86,86,9.71,RU,09-12-2021
303,Aklavik,68.2191,-135.0107,45.43,87,75,5.75,CA,09-12-2021
304,Coyhaique,-45.5752,-72.0662,47.01,66,75,9.22,CL,09-12-2021
305,Araouane,18.9048,-3.5265,109.47,9,5,10.85,ML,09-12-2021
306,Cockburn Town,21.4612,-71.1419,83.43,73,71,20.18,TC,09-12-2021
307,Kruisfontein,-34.0033,24.7314,58.89,75,93,10.2,ZA,09-12-2021
308,Kawalu,-7.3817,108.2082,72.0,98,100,2.08,ID,09-12-2021
309,Windhoek,-22.5594,17.0832,84.4,16,40,5.75,NA,09-12-2021
310,Hasaki,35.7333,140.8333,72.0,90,100,14.0,JP,09-12-2021
311,Prome,18.8167,95.2167,74.25,98,100,7.78,MM,09-12-2021
312,Alice Springs,-23.7,133.8833,60.35,48,0,8.05,AU,09-12-2021
313,Annau,37.8876,58.516,80.1,18,0,6.91,TM,09-12-2021
314,Mariana,-20.3778,-43.4161,92.61,21,11,7.43,BR,09-12-2021
315,Saldanha,-33.0117,17.9442,62.65,72,33,12.73,ZA,09-12-2021
316,Wattegama,6.7989,81.4808,79.72,63,91,12.95,LK,09-12-2021
317,Abhā,18.2164,42.5053,75.02,40,40,12.66,SA,09-12-2021
318,Denpasar,-8.65,115.2167,78.46,94,75,2.3,ID,09-12-2021
319,Gordeyevka,52.9569,31.9703,64.53,59,96,4.34,RU,09-12-2021
320,Codrington,-38.2667,141.9667,46.98,82,24,14.79,AU,09-12-2021
321,Kamenka,51.3223,42.7678,64.27,59,100,6.73,RU,09-12-2021
322,Marrakesh,31.6315,-8.0083,91.47,27,75,12.66,MA,09-12-2021
323,Grindavik,63.8424,-22.4338,52.27,93,90,29.93,IS,09-12-2021
324,Inhambane,-23.865,35.3833,75.18,60,0,9.22,MZ,09-12-2021
325,Vila,42.0304,-8.1588,75.7,50,96,6.87,PT,09-12-2021
326,Atherton,53.5237,-2.4935,64.22,75,100,3.98,GB,09-12-2021
327,Arrondissement de Verdun,49.25,5.3333,74.16,65,92,5.88,FR,09-12-2021
328,Loikaw,19.6742,97.2094,67.37,97,30,2.68,MM,09-12-2021
329,Panama City,8.9936,-79.5197,82.35,79,75,4.61,PA,09-12-2021
330,Abéché,13.8292,20.8324,95.02,51,40,4.61,TD,09-12-2021
331,Buy,58.4786,41.53,52.79,98,100,3.94,RU,09-12-2021
332,Cap Malheureux,-19.9842,57.6142,72.46,72,17,11.99,MU,09-12-2021
333,Flinders,-34.5833,150.8552,58.21,55,26,10.38,AU,09-12-2021
334,Firovo,57.4814,33.7021,60.93,93,86,4.97,RU,09-12-2021
335,Malé,4.1748,73.5089,84.15,74,75,10.36,MV,09-12-2021
336,Kulevcha,46.0303,29.9361,73.08,43,100,5.99,UA,09-12-2021
337,Constitución,-35.3333,-72.4167,53.44,83,99,23.24,CL,09-12-2021
338,São Paulo de Olivença,-3.3783,-68.8725,90.64,54,23,1.61,BR,09-12-2021
339,Minbu,20.1833,94.8833,76.01,93,97,10.8,MM,09-12-2021
340,Diamantino,-14.4086,-56.4461,101.25,19,0,7.65,BR,09-12-2021
341,Eilat,29.5581,34.9482,93.04,29,0,16.11,IL,09-12-2021
342,Cuamba,-14.8031,36.5372,77.88,41,92,4.74,MZ,09-12-2021
343,Taltal,-25.4,-70.4833,63.0,58,28,7.52,CL,09-12-2021
344,Puebla,18.8333,-98.0,64.17,58,45,8.5,MX,09-12-2021
345,Cilibia,45.0667,27.0667,79.29,23,32,9.35,RO,09-12-2021
346,Davila,18.4726,120.5763,78.78,81,100,20.89,PH,09-12-2021
347,Harper,4.375,-7.7169,78.67,81,97,8.23,LR,09-12-2021
348,Arraial do Cabo,-22.9661,-42.0278,76.86,78,75,14.97,BR,09-12-2021
349,Hūn,29.1268,15.9477,95.81,26,0,15.66,LY,09-12-2021
350,Belmonte,-15.8631,-38.8828,82.4,62,94,6.11,BR,09-12-2021
351,Port-Cartier,50.0334,-66.8654,56.93,95,100,11.95,CA,09-12-2021
352,Victoria Point,-27.5833,153.3,68.92,78,4,3.0,AU,09-12-2021
353,São Sepé,-30.1606,-53.5653,69.75,60,50,7.0,BR,09-12-2021
354,Estación Coahuila,32.1939,-115.0017,94.96,34,0,1.41,MX,09-12-2021
355,Coron,11.9986,120.2043,79.3,89,100,6.13,PH,09-12-2021
356,Ilebo,-4.3167,20.5833,81.84,56,93,3.06,CD,09-12-2021
357,Richards Bay,-28.783,32.0377,71.37,65,0,15.99,ZA,09-12-2021
358,Port Hedland,-20.3167,118.5667,69.85,78,0,6.91,AU,09-12-2021
359,Paka,4.6374,103.4368,76.93,94,94,0.0,MY,09-12-2021
360,Beisfjord,68.3751,17.5988,53.73,85,100,5.55,NO,09-12-2021
361,Kenai,60.5544,-151.2583,46.15,97,75,0.0,US,09-12-2021
362,Longyearbyen,78.2186,15.6401,35.44,69,40,13.8,SJ,09-12-2021
363,Waingapu,-9.6567,120.2641,79.0,81,96,4.63,ID,09-12-2021
364,Manokwari,-0.8667,134.0833,78.3,75,18,3.24,ID,09-12-2021
365,San Quintín,30.4833,-115.95,76.75,71,0,6.29,MX,09-12-2021
366,Chumikan,54.7183,135.315,47.8,83,8,1.5,RU,09-12-2021
367,Ginir,7.1333,40.7,65.44,59,79,11.21,ET,09-12-2021
368,Ntoum,0.3833,9.7833,82.17,71,84,5.5,GA,09-12-2021
369,Cairns,-16.9167,145.7667,71.55,90,75,3.44,AU,09-12-2021
370,Kurchum,48.5722,83.6542,50.63,74,50,9.69,KZ,09-12-2021
371,Poções,-14.5297,-40.3653,82.38,38,5,9.6,BR,09-12-2021
372,Gold Coast,-28.0,153.4333,69.01,76,0,1.99,AU,09-12-2021
373,Necochea,-38.5473,-58.7368,63.03,74,83,13.11,AR,09-12-2021
374,Bagdarin,54.4333,113.6,39.99,94,20,4.59,RU,09-12-2021
375,Tabas,33.5959,56.9244,86.79,13,0,8.12,IR,09-12-2021
376,Raton,36.9034,-104.4391,81.05,33,1,3.44,US,09-12-2021
377,Porto-Novo,6.4965,2.6036,82.22,75,100,11.63,BJ,09-12-2021
378,Port Augusta,-32.5,137.7667,46.54,71,39,5.64,AU,09-12-2021
379,Lazurne,46.084,32.5295,81.05,64,47,4.92,UA,09-12-2021
380,Suntar,62.1444,117.6319,49.44,84,100,3.36,RU,09-12-2021
381,Tiarei,-17.5333,-149.3333,71.62,69,11,13.98,PF,09-12-2021
382,Koutiala,12.3917,-5.4642,88.05,56,58,5.37,ML,09-12-2021
383,Manacapuru,-3.2997,-60.6206,90.18,49,27,3.94,BR,09-12-2021
384,Bandiagara,14.3501,-3.6104,90.03,31,95,6.04,ML,09-12-2021
385,Seoul,37.5683,126.9778,71.04,88,0,3.44,KR,09-12-2021
386,Bac Lieu,9.285,105.7244,78.87,90,98,11.54,VN,09-12-2021
387,North Las Vegas,36.1989,-115.1175,93.2,28,1,0.0,US,09-12-2021
388,Gemeente Wageningen,51.9667,5.6667,71.19,78,90,3.44,NL,09-12-2021
389,Port Lincoln,-34.7333,135.8667,50.94,61,6,13.22,AU,09-12-2021
390,Nuevitas,21.5453,-77.2644,87.24,61,6,14.12,CU,09-12-2021
391,Jinchang,38.4953,102.1739,60.06,69,100,5.19,CN,09-12-2021
392,Singapore,1.2897,103.8501,82.31,75,75,0.0,SG,09-12-2021
393,Ndjolé,-0.1783,10.7649,82.33,71,75,1.99,GA,09-12-2021
394,Bucerías,20.75,-105.3333,84.97,83,1,2.3,MX,09-12-2021
395,Zhangye,38.9342,100.4517,61.9,62,56,8.08,CN,09-12-2021
396,Daru,-9.0763,143.2092,77.29,86,87,12.46,PG,09-12-2021
397,Riyadh,24.6877,46.7219,96.94,7,2,11.34,SA,09-12-2021
398,Tessalit,20.1986,1.0114,108.09,8,60,8.1,ML,09-12-2021
399,Matadi,-5.8167,13.45,87.06,48,87,5.23,CD,09-12-2021
400,Barcelos,41.5388,-8.6151,85.91,58,100,7.94,PT,09-12-2021
401,Umluj,25.0213,37.2685,83.07,70,34,11.23,SA,09-12-2021
402,Rostovka,55.3842,71.8891,43.43,75,58,16.13,RU,09-12-2021
403,Lékoni,-1.5843,14.2591,81.01,59,76,5.7,GA,09-12-2021
404,Puerto Triunfo,5.8726,-74.6403,88.02,59,73,0.92,CO,09-12-2021
405,Şuşani,44.5833,24.1,82.81,24,0,4.97,RO,09-12-2021
406,Baghdad,33.3406,44.4009,96.71,20,0,12.66,IQ,09-12-2021
407,Ambon City,-3.6954,128.1814,77.14,94,40,4.61,ID,09-12-2021
408,Maţāy,28.419,30.7792,91.62,27,0,12.95,EG,09-12-2021
409,Rapid Valley,44.0625,-103.1463,76.03,61,75,1.01,US,09-12-2021
410,Omsukchan,62.5333,155.8,30.56,60,97,2.93,RU,09-12-2021
411,Carutapera,-1.195,-46.02,86.74,59,91,11.63,BR,09-12-2021
412,Saint-Pierre,-21.3393,55.4781,71.28,74,20,25.32,RE,09-12-2021
413,Bagotville,-28.9833,153.4167,66.22,86,3,6.2,AU,09-12-2021
414,Baracoa,20.3467,-74.4958,86.5,69,92,12.86,CU,09-12-2021
415,Klaksvík,62.2266,-6.589,54.52,89,86,11.9,FO,09-12-2021
416,Ust'-Omchug,61.15,149.6333,32.59,54,49,1.25,RU,09-12-2021
417,Presidencia Roque Sáenz Peña,-26.7852,-60.4388,95.61,28,18,18.84,AR,09-12-2021
418,Bundaberg,-24.85,152.35,69.22,90,44,1.99,AU,09-12-2021
419,Yinchuan,38.4681,106.2731,78.39,31,100,9.82,CN,09-12-2021
420,Swan River,52.1058,-101.2676,48.09,76,58,2.3,CA,09-12-2021
421,Poreč,45.2258,13.5939,86.36,52,0,5.88,HR,09-12-2021
422,Hay River,60.8156,-115.7999,51.78,76,40,4.61,CA,09-12-2021
423,Hobyo,5.3505,48.5268,78.24,79,98,24.36,SO,09-12-2021
424,Soyo,-6.1349,12.3689,80.65,79,58,7.87,AO,09-12-2021
425,Port Moresby,-9.4431,147.1797,74.95,93,51,2.77,PG,09-12-2021
426,Puerto El Triunfo,13.2833,-88.55,83.32,71,58,3.6,SV,09-12-2021
427,Dhārchula,29.85,80.5333,72.34,83,100,3.89,IN,09-12-2021
428,Tomatlán,19.9333,-105.25,85.24,66,71,2.15,MX,09-12-2021
429,Salmās,38.1973,44.7653,76.19,26,0,3.4,IR,09-12-2021
430,Simao,22.7886,100.9748,66.96,70,0,1.83,CN,09-12-2021
431,Tiksi,71.6872,128.8694,45.79,76,53,7.9,RU,09-12-2021
432,São João da Barra,-21.6403,-41.0511,82.49,76,66,11.52,BR,09-12-2021
433,Lasem,-6.6922,111.4527,78.22,84,78,7.4,ID,09-12-2021
434,Folldal,62.1325,9.9968,48.56,79,91,7.61,NO,09-12-2021
435,Seminole,28.7086,-81.2081,89.69,85,75,1.99,US,09-12-2021
436,Qiongshan,20.0058,110.3542,80.58,94,0,0.0,CN,09-12-2021
437,Salinas,36.6777,-121.6555,70.57,97,90,0.0,US,09-12-2021
438,Sainte-Suzanne,-20.9061,55.6089,71.82,78,33,19.57,RE,09-12-2021
439,Wah,33.798,72.6957,82.0,64,0,4.43,PK,09-12-2021
440,Jōetsu,37.1483,138.2364,69.4,83,100,8.77,JP,09-12-2021
441,Voh,-20.9667,164.7,62.83,88,2,4.23,NC,09-12-2021
442,Vitim,59.4511,112.5578,46.63,97,100,8.14,RU,09-12-2021
443,Saint-Paul-lès-Dax,43.7272,-1.0516,86.4,49,5,6.91,FR,09-12-2021
444,Atocha,-20.9333,-66.2333,57.04,12,98,28.03,BO,09-12-2021
445,Kiryat Gat,31.61,34.7642,80.82,12,0,9.37,IL,09-12-2021
446,Vawkavysk,53.1561,24.4513,67.69,71,33,8.08,BY,09-12-2021
447,Zhangaözen,43.3,52.8,77.61,19,0,9.33,KZ,09-12-2021
448,Ixtapa,20.7,-105.2,84.22,83,1,2.3,MX,09-12-2021
449,Caravelas,-17.7125,-39.2481,82.76,54,75,8.32,BR,09-12-2021
450,Valdemārpils,57.3707,22.5919,62.02,89,93,7.83,LV,09-12-2021
451,Sorong,-0.8833,131.25,79.14,81,71,2.71,ID,09-12-2021
452,Toora-Khem,52.4675,96.11,47.48,68,47,2.8,RU,09-12-2021
453,Shar,49.5886,81.0453,47.82,52,5,4.68,KZ,09-12-2021
454,Alofi,-19.0595,-169.9187,71.49,94,100,11.5,NU,09-12-2021
455,Tilichiki,60.4667,166.1,31.75,74,11,5.73,RU,09-12-2021
456,Tommot,58.9564,126.2925,47.8,82,6,3.06,RU,09-12-2021
457,Khanbari,27.3747,87.2039,71.65,90,92,2.57,NP,09-12-2021
458,Dicabisagan,17.0818,122.4157,78.22,83,100,5.61,PH,09-12-2021
459,Sumbe,-11.2061,13.8437,74.95,79,65,6.15,AO,09-12-2021
460,Przhevalskoye,55.5093,31.8482,63.97,80,80,4.7,RU,09-12-2021
461,Abnūb,27.2696,31.1511,91.72,24,0,16.02,EG,09-12-2021
462,Aransas Pass,27.9095,-97.15,87.82,74,1,1.99,US,09-12-2021
463,São José da Coroa Grande,-8.8978,-35.1478,82.44,63,43,11.18,BR,09-12-2021
464,Haines Junction,60.7522,-137.5108,28.35,100,55,0.0,CA,09-12-2021
465,Kumluca,36.3703,30.2869,78.58,56,1,6.26,TR,09-12-2021
466,Marawi,7.9986,124.2928,65.64,92,100,1.23,PH,09-12-2021
467,Arrondissement de Riom,45.9167,2.9167,72.25,48,85,5.01,FR,09-12-2021
468,Bloemfontein,-29.1211,26.214,76.48,11,0,10.36,ZA,09-12-2021
469,Ambilobe,-13.2,49.05,74.82,59,100,5.7,MG,09-12-2021
470,Saint George,37.1041,-113.5841,87.53,33,1,1.99,US,09-12-2021
471,Asău,46.4333,26.4,74.32,53,99,2.06,RO,09-12-2021
472,Coxim,-18.5067,-54.76,104.23,15,67,8.86,BR,09-12-2021
473,Salinópolis,-0.6136,-47.3561,83.55,73,72,11.59,BR,09-12-2021
474,Bud,39.447,-86.1758,80.85,62,20,15.52,US,09-12-2021
475,Berdigestyakh,62.0989,126.6992,46.04,75,15,4.76,RU,09-12-2021
476,Suwannaphum,15.6035,103.8021,77.85,91,100,4.68,TH,09-12-2021
477,Kibre Mengist,5.8833,38.9833,65.07,66,99,4.05,ET,09-12-2021
478,Athabasca,54.7169,-113.2854,54.01,87,100,3.96,CA,09-12-2021
479,Mahébourg,-20.4081,57.7,72.25,78,75,19.57,MU,09-12-2021
480,Nago,26.5881,127.9761,84.63,89,100,22.06,JP,09-12-2021
481,Beipiao,41.7919,120.7792,62.08,74,100,4.61,CN,09-12-2021
482,Tashla,51.7716,52.7427,58.19,38,10,3.11,RU,09-12-2021
483,Morondava,-20.2833,44.2833,77.11,75,38,12.93,MG,09-12-2021
484,Catabola,-12.15,17.2833,83.35,16,84,1.77,AO,09-12-2021
485,Marabu,4.4148,114.0089,80.74,94,40,2.3,MY,09-12-2021
486,Tumarbong,10.3766,119.4579,80.87,84,100,7.81,PH,09-12-2021
487,Barvinkove,48.9097,37.0205,70.92,43,100,6.98,UA,09-12-2021
488,Pointe Michel,15.25,-61.3833,83.34,89,75,2.3,DM,09-12-2021
489,Beroroha,-21.6667,45.1667,78.8,33,0,14.65,MG,09-12-2021
490,Mahon,39.8885,4.2658,79.36,69,20,8.05,ES,09-12-2021
491,Semey,50.4111,80.2275,48.42,61,0,6.71,KZ,09-12-2021
492,Dukat,62.55,155.55,29.07,61,100,3.13,RU,09-12-2021
493,Baharly,38.4362,57.4316,78.55,16,0,8.5,TM,09-12-2021
494,Coquimbo,-29.9533,-71.3436,64.13,55,0,5.75,CL,09-12-2021
495,Sechura,-5.5569,-80.8222,74.64,60,69,11.39,PE,09-12-2021
496,San Policarpo,12.1791,125.5072,81.01,83,100,6.93,PH,09-12-2021
497,Kosum Phisai,16.2486,103.0674,84.61,85,90,6.06,TH,09-12-2021
498,Nishihara,26.1842,127.7558,83.86,89,90,18.41,JP,09-12-2021
499,Nkhata Bay,-11.6066,34.2907,73.69,64,0,7.0,MW,09-12-2021
500,Angoram,-4.0625,144.0661,74.03,99,88,1.57,PG,09-12-2021
501,Bubaque,11.2833,-15.8333,80.78,78,83,6.38,GW,09-12-2021
502,Awjilah,29.1081,21.2869,96.6,28,0,19.64,LY,09-12-2021
503,Taunton,51.0211,-3.1047,70.95,66,100,5.01,GB,09-12-2021
504,Palāsbāri,26.1361,91.5486,84.25,84,75,0.0,IN,09-12-2021
505,San Cristobal,7.7669,-72.225,77.18,52,41,8.66,VE,09-12-2021
506,Yeppoon,-23.1333,150.7333,67.78,82,85,8.19,AU,09-12-2021
507,Provost,52.3501,-110.2683,50.45,64,99,11.05,CA,09-12-2021
508,Mawlaik,23.6333,94.4167,75.49,98,20,0.89,MM,09-12-2021
509,Redlands,34.0556,-117.1825,91.83,34,1,0.0,US,09-12-2021
510,Birao,10.2849,22.7882,76.82,86,79,2.95,CF,09-12-2021
511,Puerto Carreño,6.189,-67.4859,86.58,63,82,5.55,CO,09-12-2021
512,Blyth,55.1271,-1.5086,59.36,79,75,8.05,GB,09-12-2021
513,Vilyuysk,63.7553,121.6247,47.3,79,12,5.39,RU,09-12-2021
514,Porto de Moz,-1.7483,-52.2383,95.68,36,2,4.52,BR,09-12-2021
515,Yangi Marg`ilon,40.4272,71.7189,75.92,25,0,0.0,UZ,09-12-2021
516,Mokobeng,-22.9965,27.6678,73.42,18,0,7.05,BW,09-12-2021
517,Téra,14.0078,0.7531,97.7,33,55,9.24,NE,09-12-2021
518,Belaya Gora,68.5333,146.4167,41.4,65,77,6.29,RU,09-12-2021
519,Esmeraldas,-19.7625,-44.3139,86.11,14,28,7.52,BR,09-12-2021
520,Äänekoski,62.6946,25.818,55.47,100,100,7.65,FI,09-12-2021
521,Mount Gambier,-37.8333,140.7667,46.31,93,75,10.36,AU,09-12-2021
522,Meadow Lake,34.8014,-106.5436,81.48,21,33,8.81,US,09-12-2021
523,Parabel',58.6978,81.4825,41.38,95,100,9.62,RU,09-12-2021
524,Camacha,33.0833,-16.3333,77.76,65,40,14.97,PT,09-12-2021
525,Ürümqi,43.801,87.6005,70.75,21,0,4.47,CN,09-12-2021
526,Bluefield,37.2698,-81.2223,73.65,66,1,5.01,US,09-12-2021
527,Santa Maria,-29.6842,-53.8069,69.1,78,0,10.36,BR,09-12-2021
528,Dingle,10.9995,122.6711,75.97,92,100,1.48,PH,09-12-2021
529,Shatsk,54.0258,41.7119,66.85,51,62,6.67,RU,09-12-2021
530,Bilma,18.6853,12.9164,103.98,10,3,6.73,NE,09-12-2021
531,Kununurra,-15.7667,128.7333,71.58,73,67,3.44,AU,09-12-2021
532,Gaoual,11.75,-13.2,83.14,82,70,2.48,GN,09-12-2021
533,Honghu,29.8206,113.4621,76.03,80,3,6.69,CN,09-12-2021
534,Pindi Bhattian,31.8978,73.273,82.85,67,0,6.69,PK,09-12-2021
535,Itarema,-2.9248,-39.9167,87.75,50,93,19.28,BR,09-12-2021
536,Nizhniy Kuranakh,58.8353,125.4869,48.9,77,29,5.08,RU,09-12-2021
537,Grand-Lahou,5.1367,-5.0242,79.84,80,97,10.07,CI,09-12-2021
538,Whittlesea,-32.1759,26.8244,77.58,15,11,11.45,ZA,09-12-2021
539,Baruun-Urt,46.6806,113.2792,45.36,82,0,5.23,MN,09-12-2021
540,Santa Rosa,14.3122,121.1114,79.11,91,100,0.07,PH,09-12-2021
541,Livingston,55.9029,-3.5226,60.85,72,75,8.05,GB,09-12-2021
542,Saint-François,46.4154,3.9054,78.24,44,0,3.44,FR,09-12-2021
543,Lata,40.1629,-8.3327,92.05,37,100,9.89,PT,09-12-2021
544,Kumul,42.8,93.45,75.61,21,100,2.26,CN,09-12-2021
545,Teya,60.3778,92.6267,45.39,97,99,3.18,RU,09-12-2021
546,Jerantut,3.936,102.3626,74.43,98,100,1.07,MY,09-12-2021
547,Kiama,-34.6833,150.8667,57.99,56,25,11.36,AU,09-12-2021
548,Lianzhou,24.7811,112.3825,79.3,73,47,3.09,CN,09-12-2021
549,Dunedin,-45.8742,170.5036,53.8,84,98,3.0,NZ,09-12-2021
550,Port Pirie,-33.1833,138.0167,46.49,81,11,7.34,AU,09-12-2021
551,Prince Rupert,54.3161,-130.3201,53.69,94,90,4.61,CA,09-12-2021
552,Mae Sai,20.4335,99.8762,79.92,91,37,1.86,TH,09-12-2021
553,Santa Isabel Rio Negro,-0.4139,-65.0192,94.35,43,5,4.32,BR,09-12-2021
554,Manali,13.1667,80.2667,86.09,71,100,13.29,IN,09-12-2021
555,Rūdsar,37.1376,50.288,76.98,83,41,4.47,IR,09-12-2021
556,Perūr,10.9667,76.9,76.69,78,40,13.8,IN,09-12-2021
557,Puerto del Rosario,28.5004,-13.8627,76.75,83,20,11.5,ES,09-12-2021
558,Boende,-0.2167,20.8667,75.52,80,68,2.57,CD,09-12-2021
559,Madison,34.7334,-86.5667,79.79,75,1,1.99,US,09-12-2021
560,Veinticinco de Mayo,-35.4323,-60.1727,74.05,60,0,9.89,AR,09-12-2021
561,Pingliang,35.5392,106.6861,63.34,61,4,3.65,CN,09-12-2021
562,Bat Khela,34.6167,71.9714,75.85,74,0,3.94,PK,09-12-2021
563,Atar,20.5169,-13.0499,99.57,24,100,4.07,MR,09-12-2021
564,Chongwe,-15.3292,28.682,73.27,34,73,6.8,ZM,09-12-2021
565,Northam,51.0333,-4.2167,68.2,82,100,7.14,GB,09-12-2021
566,Hokitika,-42.7167,170.9667,55.24,94,100,23.89,NZ,09-12-2021
567,Baisha,26.5222,110.9311,74.7,78,17,2.24,CN,09-12-2021
568,Fukuyama,34.4833,133.3667,73.9,89,100,3.06,JP,09-12-2021
569,Kodinsk,58.6881,99.1844,49.8,91,100,4.25,RU,09-12-2021
570,Puerto Ayacucho,5.6639,-67.6236,86.9,64,96,2.86,VE,09-12-2021
571,Pimenta Bueno,-11.6725,-61.1936,100.62,28,0,5.84,BR,09-12-2021
572,Tura,25.5198,90.2201,74.21,96,50,4.23,IN,09-12-2021
573,Isparta Province,38.0,31.0,72.36,45,27,8.95,TR,09-12-2021
574,Hirara,24.8,125.2833,84.56,82,100,37.33,JP,09-12-2021
575,Praia da Vitória,38.7333,-27.0667,74.75,73,40,24.11,PT,09-12-2021
576,Kavaratti,10.5669,72.642,81.72,82,99,21.3,IN,09-12-2021
577,Itaituba,-4.2761,-55.9836,93.36,55,40,5.75,BR,09-12-2021
578,Takoradze,4.8845,-1.7554,80.1,81,47,11.86,GH,09-12-2021
579,Broken Hill,-31.95,141.4333,44.31,65,0,12.66,AU,09-12-2021
580,Gonder,12.6,37.4667,58.06,92,91,4.76,ET,09-12-2021
581,Vanavara,60.34,102.2797,49.75,79,100,3.67,RU,09-12-2021
582,Qinhuangdao,39.9317,119.5883,67.8,73,35,1.1,CN,09-12-2021
583,Urdoma,61.7533,48.5442,39.06,73,28,0.58,RU,09-12-2021
584,Shenjiamen,29.9576,122.298,79.25,93,100,32.86,CN,09-12-2021
585,Tsumeb,-19.2333,17.7167,85.55,10,0,10.89,NA,09-12-2021
586,Inongo,-1.95,18.2667,69.87,91,93,0.56,CD,09-12-2021
587,Ulladulla,-35.35,150.4667,53.87,73,47,6.49,AU,09-12-2021
588,Kjøllefjord,70.9457,27.3465,51.85,76,0,4.61,NO,09-12-2021
